{"munros": [{
    "description": "A'Bhuidheanach Bheag is a broad, domed summit on the spacious plateau to the east of the Drumochter Pass.",
    "name": "A'Bhuidheanach Bheag",
    "region": "Loch Ericht to Glen Tromie and Glen Garry",
    "height": "937m (approx 3074ft)",
    "latitude": "56.870459",
    "longitude": "-4.200008",
    "gridReference": "NN660776",
    "difficulty": "Intermediate"
},

 {
     "description": "Topped by a big cairn, A'Chailleach is the most asceneded and perhaps the finest of the Monadhliath.",
     "name": "A'Chailleach (Monadhliath)",
     "region": "Spean Bridge to Elgin",
     "height": "930m (approx 3051ft)",
     "latitude": "57.10895",
     "longitude": "-4.179447",
     "gridReference": "NH681041",
     "difficulty": "Intermediate"
 },
 {
     "name": "A'Chailleach",
     "region": "Loch Maree to Loch Broom and Garve",
     "height": "997m (approx 3271ft)",
     "latitude": "57.693754",
     "longitude": "-5.129114",
     "gridReference": "NH136714",
     "difficulty": "Easy"
 },
 {
     "name": "A'Chraileag (A'Chralaig)",
     "region": "Loch Duich to Loch Ness, South of Loch Mullardoch",
     "height": "1120m (approx 3675ft)",
     "latitude": "57.184351",
     "longitude": "-5.155414",
     "gridReference": "NH094148",
     "difficulty": "Hard"
 },
 {
     "name": "A'Ghlas-bheinn",
     "region": "Loch Duich to Loch Ness, South of Loch Mullardoch",
     "height": "918m (approx 3012ft)",
     "latitude": "57.254236",
     "longitude": "-5.304025",
     "gridReference": "NH008230"
 },
 {
     "name": "A'Mhaighdean",
     "region": "Loch Maree to Loch Broom and Garve",
     "height": "967m (approx 3173ft)",
     "latitude": "57.719609",
     "longitude": "-5.348044",
     "gridReference": "NH007749"
 },
 {
     "name": "A'Mharconaich",
     "region": "Loch Ericht to Glen Tromie and Glen Garry",
     "height": "975m (approx 3199ft)",
     "latitude": "56.856241",
     "longitude": "-4.291031",
     "gridReference": "NN604762"
 },
 {
     "name": "Am Basteir",
     "region": "Isle of Skye",
     "height": "934m (approx 3064ft)",
     "latitude": "57.247992",
     "longitude": "-6.204116",
     "gridReference": "NG465253"
 },
 {
     "name": "Am Bodach",
     "region": "Fort William to Loch Ericht",
     "height": "1032m (approx 3386ft)",
     "latitude": "56.740924",
     "longitude": "-4.983993",
     "gridReference": "NN176650"
 },
 {
     "name": "Am Faochagach",
     "region": "Ullapool to the Moray Firth",
     "height": "954m (approx 3130ft)",
     "latitude": "57.771239",
     "longitude": "-4.854914",
     "gridReference": "NH303793"
 },
 {
     "name": "An Caisteal",
     "region": "Firth of Clyde to Strathtay",
     "height": "995m (approx 3264ft)",
     "latitude": "56.338251",
     "longitude": "-4.625574",
     "gridReference": "NN378193"
 },
 {
     "name": "An Coileachan",
     "region": "Loch Maree to Loch Broom and Garve",
     "height": "923m (approx 3028ft)",
     "latitude": "57.667484",
     "longitude": "-4.950736",
     "gridReference": "NH241680"
 },
 {
     "name": "An Gearanach",
     "region": "Fort William to Loch Ericht",
     "height": "982m (approx 3222ft)",
     "latitude": "56.758399",
     "longitude": "-4.967379",
     "gridReference": "NN187669"
 },
 {
     "name": "An Riabhachan",
     "region": "Kyle of Lochalsh to Inverness, North of Loch Mullardoch",
     "height": "1130m (approx 3707ft)",
     "latitude": "57.361765",
     "longitude": "-5.105769",
     "gridReference": "NH133344"
 },
 {
     "name": "An Sgarsoch",
     "region": "Forest of Atholl to Braemar and Blairgowrie",
     "height": "1006m (approx 3301ft)",
     "latitude": "56.931418",
     "longitude": "-3.754918",
     "gridReference": "NN933836"
 },
 {
     "name": "An Socach (Affric)",
     "region": "Loch Duich to Loch Ness, South of Loch Mullardoch",
     "height": "921m (approx 3022ft)",
     "latitude": "57.25765",
     "longitude": "-5.171635",
     "gridReference": "NH088230"
 },
 {
     "name": "An Socach (Braemar)",
     "region": "Forest of Atholl to Braemar and Blairgowrie",
     "height": "944m {approx 3097ft}",
     "latitude": "56.901326",
     "longitude": "-3.513766",
     "gridReference": "NO079799"
 },
 {
     "name": "An Socach (Mullardoch)",
     "region": "Kyle of Lochalsh to Inverness, North of Loch Mullardoch",
     "height": "1069m (approx 3507ft)",
     "latitude": "57.349637",
     "longitude": "-5.159616",
     "gridReference": "NH100332"
 },
 {
     "name": "An Stuc",
     "region": "Loch Rannoch to Loch Tay",
     "height": "1118m (approx 3668ft)",
     "latitude": "56.56014",
     "longitude": "-4.216137",
     "gridReference": "NN639431"
 },
 {
     "name": "An Teallach (Bidein a'Ghlas Thuill)",
     "region": "Loch Maree to Loch Broom and Garve",
     "height": "1062m (approx 3484ft)",
     "latitude": "57.806571",
     "longitude": "-5.253386",
     "gridReference": "NH068843"
 },
 {
     "name": "An Teallach (Sgurr Fiona)",
     "region": "Loch Maree to Loch Broom and Garve",
     "height": "1060m (approx 3478ft)",
     "latitude": "57.801018",
     "longitude": "-5.25962",
     "gridReference": "NH064837"
 },
 {
   "name": "Aonach Air Chrith",
   "region": "Glen Shiel to Glenfinnan",
   "height": "1021m (approx 3350ft)",
   "latitude": "57.124564",
   "longitude": "-5.22301",
   "gridReference": "NH050083"
 },
 {
     "name": "Aonach Beag {Alder}",
     "region": "Fort William to Loch Ericht",
     "height": "1118m (approx 3668ft)",
     "latitude": "56.832741",
     "longitude": "-4.530583",
     "gridReference": "NN457741"
 },
 {
     "name": "Aonach Beag (Nevis Range)",
     "region": "Fort William to Loch Ericht",
     "height": "1234m (approx 4049ft)",
     "latitude": "56.800018",
     "longitude": "-4.955925",
     "gridReference": "NN196715"
 },
 {
     "name": "Aonach Eagach (Meall Dearg)",
     "region": "Loch Leven to Connel Bridge and Glen Lochy",
     "height": "953m (approx 3127ft)",
     "latitude": "56.680226",
     "longitude": "-5.003684",
     "gridReference": "NN161583"
 },
 {
   "name": "Aonach Eagach (Sgorr nam Fiannaidh)",
   "region": "Loch Leven to Connel Bridge and Glen Lochy",
   "height": "967m (approx 3173ft)",
   "latitude": "56.679395",
   "longitude": "-5.037911",
   "gridReference": "NN140583"
 },
 {
   "name": "Aonach Meadhoin",
   "region": "Loch Duich to Loch Ness, South of Loch Mullardoch",
   "height":  "1001m (approx 3284ft)",
   "latitude": "57.172593",
   "longitude": "-5.228879",
   "gridReference": "NH049137"
 },
 {
   "name": "Aonach Mor",
   "region": "Fort William to Loch Ericht",
   "height": "1221m (approx 4006ft)",
   "latitude": "56.812423",
   "longitude": "-4.963457",
   "gridReference": "NN192729"
 },
 {
   "name": "Beinn a'Bheithir (Sgorr Dhearg)",
   "region": "Loch Leven to Connel Bridge and Glen Lochy",
   "height": "1024m (approx 3360ft)",
   "latitude": "56.653553",
   "longitude": "-5.172915",
   "gridReference": "NN056558"
 },
 {
   "name": "Beinn a'Bheithir (Sgorr Dhonuill)",
   "region": "Loch Leven to Connel Bridge and Glen Lochy",
   "height": "1001m (approx 3284ft)",
   "latitude": "56.650195",
   "longitude": "-5.198743",
   "gridReference": "NN040555"
 },
 {
   "name": "Beinn a'Bhuird",
   "region": "The Cairngorms",
   "height": "1197m (approx 3927ft)",
   "latitude": "57.087476",
   "longitude": "-3.49989",
   "gridReference": "NJ092006"
 },
 {
   "name": "Beinn a'Chaorainn (Cairngorms)",
   "region": "The Cairngorms",
   "height": "1082m (approx 3550ft)",
   "latitude": "57.09281",
   "longitude": "-3.577678",
   "gridReference": "NJ045013"
 },
 {
   "name": "Beinn a'Chaorainn (Glen Spean)",
   "region": "Spean Bridge to Elgin",
   "height": "1050m (approx 3445ft)",
   "latitude": "56.929043",
   "longitude": "-4.653805",
   "gridReference": "NN386851"
 },
 {
   "name": "Beinn a'Chlachair",
   "region": "Fort William to Loch Ericht",
   "height": "1087m (approx 3566ft)",
   "latitude": "56.869104",
   "longitude": "-4.510066",
   "gridReference": "NN471781"
 },
 {
   "name": "Beinn a'Chleibh",
   "region": "Firth of Clyde to Strathtay",
   "height": "916m (approx 3005ft)",
   "latitude": "56.390226",
   "longitude": "-4.836569",
   "gridReference": "NN250256"
 },
 {
   "name": "Beinn a'Chochuill",
   "region": "Loch Leven to Connel Bridge and Glen Lochy",
   "height": "979m (approx 3212ft)",
   "latitude": "56.44939",
   "longitude": "-5.069835",
   "gridReference": "NN109328"
 },
 {
   "name": "Beinn a'Chreachain",
   "region": "Loch Rannoch to Loch Tay",
   "height": "1081m (approx 3547ft)",
   "latitude": "56.559754",
   "longitude": "-4.649042",
   "gridReference": "NN373440"
 },
 {
   "name": "Beinn a'Chroin",
   "region": "Firth of Clyde to Strathay",
   "height": "940m (approx 3084ft)",
   "latitude": "56.332514",
   "longitude": "-4.599293",
   "gridReference": "NN394186"
 },
 {
   "name": "Beinn a'Ghlo (Braigh Coire Chruinn-bhalgain)",
   "region": "Forest of Atholl to Braemar and Blaigowrie",
   "height": "1070m (approx 3510ft)",
   "latitude": "56.831123",
   "longitude": "-3.730555",
   "gridReference": "NN945724"
 },
 {
   "name": "Beinn a'Ghlo (Carn Liath)",
   "region": "Forest of Atholl to Braemar and Blairgowrie",
   "height": "975m (approx 3199ft)",
   "latitude": "56.807571",
   "longitude": "-3.744211",
   "gridReference": "NN936698"
 },
 {
   "name": "Beinn s'Ghlo (Carn nan Gabhar)",
   "region": "Forest of Atholl to Braemar and Blairgowrie",
   "height": "1129m (approx 3704ft)",
   "latitude": "56.839788",
   "longitude": "-3.688331",
   "gridReference": "NN971733"
 },
 {
   "name": "Beinn Achaladair",
   "region": "Loch Rannoch to Loch Tay",
   "height": "1038m (approx 3406ft)",
   "latitude": "56.551561",
   "longitude": "-4.695661",
   "gridReference": "NN344432"
 },
 {
   "name": "Beinn Alligin (Sgurr Mhor)",
   "region": "Loch Carron to Loch Maree",
   "height": "986m (approx 3235ft)",
   "latitude": "57.591165",
   "longitude": "-5.573936",
   "gridReference": "NG865613"
 },
 {
   "name": "Beinn Alligin (Tom na Gruagaich)",
   "region": "Loch Carron to Loch Maree",
   "height": "922m (approx 3025ft)",
   "latitude": "57.580123",
   "longitude": "-5.582894",
   "gridReference": "NG859601"
 },
 {
   "name": "Beinn Bheoil",
   "region": "Fort William to Loch Ericht",
   "height": "1019m (approx 3343ft)",
   "latitude": "56.813121",
   "longitude": "-4.432586",
   "gridReference": "NN516717"
 },
 {
   "name": "Beinn Bhreac",
   "region": "The Cairngorms",
   "height": "931m (approx 3055ft)",
   "latitude": "57.055363",
   "longitude": "-3.554654",
   "gridReference": "NO058971"
 },
 {
   "name": "Beinn Bhrotain",
   "region": "The Cairgorms",
   "height": "1157m (approx 3796ft)",
   "latitude": "57.00912",
   "longitude": "-3.723993",
   "gridReference": "NN954922"
 },
 {
   "name": "Beinn Bhuidhe",
   "region": "Firth of Clyde to Strathtay",
   "height": "948m (approx 3110ft)",
   "latitude": "56.326551",
   "longitude": "-4.907879",
   "gridReference": "NN203187"
 },
 {
   "name": "Beinn Chabhair",
   "region": "Firth of Clyde to Strathtay",
   "height": "933m (approx 3061ft)",
   "latitude": "56.325309",
   "longitude": "-4.642479",
   "gridReference": "NN367179"
 },
 {
   "name": "Beinn Dearg (Blair Atholl)",
   "region": "Forest of Atholl to Braemar and Blairgowrie",
   "height": "1008m (approx 3307ft)",
   "latitude": "56.876505",
   "longitude": "-3.885268",
   "gridReference": "NN852777"
 },
 {
   "name": "Beinn Dearg (Ullapool)",
   "region": "Ullapool to the Moray Firth",
   "height": "1084m (approx 3556ft)",
   "latitude": "57.785699",
   "longitude": "-4.930093",
   "gridReference": "NH259811"
 },
 {
   "name": "Beinn Dorain",
   "region": "Loch Rannoch to Loch Tay",
   "height": "1076m (approx 3530ft)",
   "latitude": "56.502428",
   "longitude": "-4.723051",
   "gridReference": "NN325378"
 },
 {
   "name": "Beinn Dubhchraig",
   "region": "Firth of Clyde to Strathtay",
   "height": "978m (approx 3209ft)",
   "latitude": "56.390508",
   "longitude": "-4.744222",
   "gridReference": "NN307254"
 },
 {
   "name": "Beinn Eibhinn",
   "region": "Fort William to Loch Ericht",
   "height": "1102m (approx 3615ft)",
   "latitude": "56.825295",
   "longitude": "-4.543194",
   "gridReference": "NN449733"
 },
 {
   "name": "Beinn Eighe (Ruadh-stac Mor)",
   "region": "Loch Carron to Loch Maree",
   "height": "1010m (approx 3314ft)",
   "latitude": "57.593356",
   "longitude": "-5.430172",
   "gridReference": "NG951611"
 },
 {
   "name": "Beinn Eighe (Spidean Coire nan Clach)",
   "region": "Loch Carron to Loch Maree",
   "height": "993m (approx 3258ft)",
   "latitude": "57.58148",
   "longitude": "-5.403949",
   "gridReference": "NG966597"
 },
 {
   "name": "Beinn Eunaich",
   "region": "Loch Leven to Connel Bridge and Glen Lochy",
   "height": "989m (approx 3245ft)",
   "latitude": "56.450425",
   "longitude": "-5.027715",
   "gridReference": "NN135328"
 },
 {
   "name": "Beinn Fhada",
   "region": "Loch Duich to Loch Ness, South of Loch Mullardoch",
   "height": "1032m (approx 3386ft)",
   "latitude": "57.220591",
   "longitude": "-5.284443",
   "gridReference": "NH018192"
 },
 {
   "name": "Beinn Fhionnlaidh",
   "region": "Loch Leven to Connel Bridge and Glen Lochy",
   "height": "959m (approx 3146ft)",
   "latitude": "56.600435",
   "longitude": "-5.1049",
   "gridReference": "NN095497"
 },
 {
   "name": "Beinn Fhionnlaidh (Carn Eige)",
   "region": "Loch Duich to Loch Ness, South of Loch Mullardoch",
   "height": "1005m (approx 3297ft)",
   "latitude": "57.305413",
   "longitude": "-5.130907",
   "gridReference": "NH115282"
 },
 {
   "name": "Beinn Ghlas",
   "region": "Loch Rannoch to Loch Tay",
   "height": "1103m (approx 3619ft)",
   "latitude": "56.535493",
   "longitude": "-4.237467",
   "gridReference": "NN625404"
 },
 {
   "name": "Beinn Heasgarnich (Beinn Sheasgarnaich)",
   "region": "Loch Rannoch to Loch Tay",
   "height": "1078m (approx 3537ft)",
   "latitude": "56.509966",
   "longitude": "-4.580547",
   "gridReference": "NN413383"
 },
 {
   "name": "Beinn Ime",
   "region": "Firth of Clyde to Strathtay",
   "height": "1011m (approx 3317)",
   "latitude": "56.236067",
   "longitude": "-4.817087",
   "gridReference": "-4.817087"
 },
 {
   "name": "Beinn Iutharn Mhor",
   "region": "Forest of Atholl to Braemar and Blairgowrie",
   "height": "1045m (approx 3428ft)",
   "latitude": "56.894352",
   "longitude": "-3.569302",
   "gridReference": "NO045792"
 },
 {
   "name": "Beinn Liath Mhor",
   "region": "Loch Carron to Loch Maree",
   "height": "926m (approx 3038ft)",
   "latitude": "57.511449",
   "longitude": "-5.400759",
   "gridReference": "NG964519"
 },
 {
   "name": "Beinn Liath Mhor Fannaich",
   "region": "Loch Maree to Loch Broom and Garve",
   "height": "954m (approx 3130ft)",
   "latitude": "57.706088",
   "longitude": "-4.990816",
   "gridReference": "NH219724"
 },
 {
   "name": "Beinn Mhanach",
   "region": "Loch Rannoch to Loch Tay",
   "height": "953m (approx 3127ft)",
   "latitude": "56.533728",
   "longitude": "-4.647224",
   "gridReference": "NN373411"
 },
 {
   "name": "Beinn Mheadhoin",
   "region": "The Cairngorms",
   "height": "1182m (approx 3878ft)",
   "latitude": "57.095063",
   "longitude": "-3.612436",
   "gridReference": "NJ024016"
 },
 {
   "name": "Beinn Narnain",
   "region": "Firth of Clyde to Strathtay",
   "height": "927m (approx 3041ft)",
   "latitude": "56.220499",
   "longitude": "-4.790131",
   "gridReference": "NN271066"
 },
 {
   "name": "Beinn Sgritheall",
   "region": "Glen Shiel to Glenfinnan",
   "height": "974m (approx 3196ft)",
   "latitude": "57.153136",
   "longitude": "-5.581167"
 },
 {
   "name": "Beinn Sgulaird",
   "region": "Loch Leven to Connel Bridge and Glen Lochy",
   "height": "937m (approx 3074ft)",
   "latitude": "56.56552",
   "longitude": "-5.17042",
   "gridReference": "NN053460"
 },
 {
   "name": "Beinn Tarsuinn",
   "region": "Loch Maree to Loch Broom and Garve",
   "height": "937m (approx 3074ft)",
   "latitude": "57.702185",
   "longitude": "-5.292704",
   "gridReference": "NH039728"
 },
 {
   "name": "Beinn Teallach",
   "region": "Spean Bridge to Elgin",
   "height": "915m (approx 3002ft)",
   "latitude": "56.935344",
   "longitude": "-4.695353",
   "gridReference": "NN361859"
 },
 {
   "name": "Beinn Tulaichean",
   "region": "Firth of Clyde to Strathtay",
   "height": "946m (approx 3104ft)",
   "latitude": "56.34223",
   "longitude": "-4.56435",
   "gridReference": "NN416196"
 },
 {
   "name": "Beinn Udlamain",
   "region": "Loch Ericht to Glen Tromie and Glen Garry",
   "height": "1010m (approx 3314ft)",
   "latitude": "56.834837",
   "longitude": "-4.330709",
   "gridReference": "NN579739"
 },
 {
   "name": "Beinn an Dothaidh",
   "region": "Loch Rannoch to Loch Tay",
   "height": "1004m (approx 3294ft)",
   "latitude": "56.529563",
   "longitude": "-4.715241",
   "gridReference": "NN331408"
 },
 {
   "name": "Beinn na Lap",
   "region": "Fort William to Loch Ericht",
   "height": "936m (approx 3071ft)",
   "latitude": "56.788701",
   "longitude": "-4.660256",
   "gridReference": "NN376695"
 },
 {
   "name": "Beinn nan Alghenan",
   "region": "Loch Leven to Connel Bridge and Glen Lochy",
   "height": "960m (approx 3150ft)",
   "latitude": "56.52002",
   "longitude": "-5.012127",
   "gridReference": "NN148405"
 },
 {
   "name": "Ben Alder",
   "region": "Fort William to Loch Ericht",
   "height": "1148m (approx 3766ft)",
   "latitude": "56.813377",
   "longitude": "-4.465373",
   "gridReference": "NN496718"
 },
 {
   "name": "Ben Avon (Leabaidh an Daimh Bhuidhe)",
   "region": "The Cairngorms",
   "height": "1171m (approx 3842ft)",
   "latitude": "57.099006",
   "longitude": "-3.435976",
   "gridReference": "NJ131018"
 },
 {
   "name": "Ben Challum (Beinn Challium)",
   "region": "Loch Rannoch to Loch Tay",
   "height": "1025m (approx 3363ft)",
   "latitude": "56.454301",
   "longitude": "-4.620593",
   "gridReference": "NN386322"
 },
 {
   "name": "Ben Chonzie",
   "region": "Firth of Clyde to Strathtay",
   "height": "931m (approx 3054ft)",
   "latitude": "56.453396",
   "longitude": "-3.992455",
   "gridReference": "NN773308"
 },
 {
   "name": "Ben Cruachan",
   "region": "Loch Leven to Connel Bridge and Glen Lochy",
   "height": "1126m (approx 3691ft)",
   "latitude": "56.426239",
   "longitude": "-5.132855",
   "gridReference": "NN069304"
 },
 {
   "name": "Ben Hope",
   "region": "The Far North",
   "height": "927m (approx 3041ft)",
   "latitude": "58.412754",
   "longitude": "-4.608707",
   "gridReference": "NC477501"
 },
 {
   "name": "Ben Kilbreck (Meall nan Con)",
   "region": "The Far North",
   "height": "962m (approx 3156ft)",
   "latitude": "58.235117",
   "longitude": "-4.41165",
   "gridReference": "NC585299"
 },
 {
   "name": "Ben Lawers",
   "region": "Loch Rannoch to Loch Tay",
   "height": "1214m (approx 3983ft)",
   "latitude": "56.544762",
   "longitude": "-4.221745",
   "gridReference": "NN635414"
 },
 {
   "name": "Ben Lomond",
   "region": "Firth of Clyde to Strathtay",
   "height": "973m (approx 3192ft)",
   "latitude": "56.189787",
   "longitude": "-4.633151",
   "gridReference": "NN367028"
 },
 {
   "name": "Ben Lui (Beinn Laoigh)",
   "region": "Firth of Clyde to Strathtay",
   "height": "1130m (approx 3707ft)",
   "latitude": "56.397097",
   "longitude": "-4.811148",
   "gridReference": "NN266263"
 },
 {
   "name": "Ben Macdui (Beinn Macduibh)",
   "region": "The Cairngorms",
   "height": "1309m (approx 4295ft)",
   "latitude": "57.070063",
   "longitude": "-3.669085",
   "gridReference": "NN989989"
 },
 {
   "name": "Ben More (Mull)",
   "region": "Isle of Mull",
   "height": "966m (approx 3169ft)",
   "latitude": "56.424168",
   "longitude": "-6.015276",
   "gridReference": "NM525330"
 },
 {
   "name": "Ben More",
   "region": "Firth of Clyde to Strathtay",
   "height": "1174m (approx 3852ft)",
   "latitude": "56.385845",
   "longitude": "-4.541359",
   "gridReference": "NN432244"
 },
 {
   "name": "Ben More Assynt",
   "region": "The Far North",
   "height": "998m (approx 3274ft)",
   "latitude": "58.13782",
   "longitude": "-4.858724",
   "gridReference": "NC318201"
 },
 {
   "name": "Ben Nevis",
   "region": "Fort William to Loch Ericht",
   "height": "1344m (approx 4409ft)",
   "latitude": "56.796154",
   "longitude": "-5.004763",
   "gridReference": "NN166712"
 },
 {
   "name": "Ben Oss",
   "region": "Firth of Clyde to Strathtay",
   "height": "1029m (approx 3376ft)",
   "latitude": "56.38889",
   "longitude": "-4.776514",
   "gridReference": "NN287253"
 },
 {
   "name": "Ben Starav",
   "region": "Loch Leven to Connel Bridge and Glen Lochy",
   "height": "1078m (approx 3537ft)",
   "latitude": "56.538846",
   "longitude": "-5.051043",
   "gridReference": "NN125427"
 },
 {
   "name": "Ben Vane",
   "region": "Firth of Clyde to Strathtay",
   "height": "915m (approx 3002ft)",
   "latitude": "56.249433",
   "longitude": "-4.78255",
   "gridReference": "NN277098"
 },
 {
   "name": "Ben Vorlich (Loch Lomond)",
   "region": "Firth of Clyde to Strathtay",
   "height": "943m (approx 3094ft)",
   "latitude": "56.273415",
   "longitude": "-4.755212",
   "gridReference": "NN295124"
 },
 {
   "name": "Ben Vorlich (Loch Earn)",
   "region": "Firth of Clyde to Strathtay",
   "height": "982m (approx 3222ft)",
   "latitude": "56.342595",
   "longitude": "-4.219685",
   "gridReference": "NN629189"
 },
 {
   "name": "Ben Wyvis (Glas Leathad Mor)",
   "region": "Ullapool to the Moray Firth",
   "height": "1046m (approx 3432ft)",
   "latitude": "57.678304",
   "longitude": "-4.579189",
   "gridReference": "NH463683"
 },
 {
   "name": "Bidean nam Bian",
   "region": "Loch Leven to Connel Bridge and Glen Lochy",
   "height": "1150m (approx 3773ft)",
   "latitude": "56.642732",
   "longitude": "-5.030066",
   "gridReference": "NN143542"
 },
 {
   "name": "Bidein a'Choire Sheasgaich",
   "region": "Kyle of Lochalsh to Inverness, North of Loch Mullardoch",
   "height": "945m (approx 3100ft)",
   "latitude": "57.41923",
   "longitude": "-5.250579",
   "gridReference": "NH049412"
 },
 {
   "name": "Binnein Beag",
   "region": "Fort William to Loch Ericht",
   "height": "943m (approx 3094ft)",
   "latitude": "56.766887",
   "longitude": "-4.912399",
   "gridReference": "NN221677"
 },
 {
   "name": "Binnein Mor",
   "region": "Fort William to Loch Ericht",
   "height": "1130m (approx 3707ft)",
   "latitude": "56.753981",
   "longitude": "-4.926125",
   "gridReference": "NN212663"
 },
 {
   "name": "Bla Bheinn (Blaven)",
   "region": "Isle of Skye",
   "height": "928m (approx 3045ft)",
   "latitude": "57.219236",
   "longitude": "-6.094748",
   "gridReference": "NG529217"
 },
 {
   "name": "Braeriach",
   "region": "The Cairngorms",
   "height": "1296m (approx 4252ft)",
   "latitude": "57.078237",
   "longitude": "-3.728848",
   "gridReference": "NN953999"
 },
 {
   "name": "Broad Cairn",
   "region": "Braemar to Montrose",
   "height": "998m (approx 3274ft)",
   "latitude": "56.918618",
   "longitude": "-3.249984",
   "gridReference": "NO240815"
 },
 {
   "name": "Bruach na Frithe",
   "region": "Isle of Skye",
   "height": "958m (approx 3143ft)",
   "latitude": "57.246874",
   "longitude": "-6.210625",
   "gridReference": "NG461252"
 },
 {
   "name": "Buachaille Etive Beag (Stob Coire Raineach)",
   "region": "Loch Leven to Connel Bridge and Glen Lochy",
   "height": "925m (approx 3035ft)",
   "latitude": "56.649995",
   "longitude": "-4.952326",
   "gridReference": "NN191548"
 },
 {
   "name": "Buachaille Etive Beag (Stob Dubh)",
   "region": "Loch Leven to Connel Bridge and Glen Lochy",
   "height": "958m (approx 3143ft)",
   "latitude": "56.637866",
   "longitude": "-4.970952",
   "gridReference": "NN179535"
 },
 {
   "name": "Buachaille Etive Mor (Stob Dearg)",
   "region": "Loch Leven to Connel Bridge and Glen Lochy",
   "height": "1021m (approx 3350ft)",
   "latitude": "56.645799",
   "longitude": "-4.901421",
   "gridReference": "NN222542"
 },
 {
   "name": "Buachaille Etive Mor (Stob na Broige)",
   "region": "Loch Leven to Connel Bridge and Glen Lochy",
   "height": "956m (approx 3136ft)",
   "latitude": "56.62932",
   "longitude": "-4.952341",
   "gridReference": "NN190525"
 },
 {
   "name": "Bynack More",
   "region": "The Cairngorms",
   "height": "1090m (approx 3576ft)",
   "latitude": "57.137626",
   "longitude": "-3.586194",
   "gridReference": "NJ041063"
 },
 {
   "name": "Cairn Bannoch",
   "region": "Braemar to Montrose",
   "height": "1012m (approx 3320ft)",
   "latitude": "56.9273",
   "longitude": "-3.27985",
   "gridReference": "NO222825"
 },
 {
   "name": "Cairn Gorm",
   "region": "The Cairngorms",
   "height": "1245m (approx 4085ft)",
   "latitude": "57.116207",
   "longitude": "-3.644735",
   "gridReference": "NJ005040"
 },
 {
   "name": "Cairn Toul",
   "region": "The Cairngorms",
   "height": "1291m (approx 4236ft)",
   "latitude": "57.05422",
   "longitude": "-3.711243",
   "gridReference": "NN963972"
 },
 {
   "name": "Cairn of Claise",
   "region": "Braemar to Montrose",
   "height": "1064m (approx 3491ft)",
   "latitude": "56.893433",
   "longitude": "-3.339432",
   "gridReference": "NO185788"
 },
 {
   "name": "Carn Aosda",
   "region": "Forest of Atholl to Braemar and Blairgowrie",
   "height": "917m (approx 3009ft)",
   "latitude": "56.896101",
   "longitude": "-3.423256",
   "gridReference": "NO134792"
 },
 {
   "name": "Carn Bhac",
   "region": "Forest of Atholl to Braemar and Blairgowrie",
   "height": "946m (approx 3104ft)",
   "latitude": "56.930396",
   "longitude": "-3.560955",
   "gridReference": "NO051832"
 },
 {
   "name": "Carn Dearg (Corrour)",
   "region": "Fort William to Loch Ericht",
   "height": "941m (approx 3087ft)",
   "latitude": "56.7596",
   "longitude": "-4.591109",
   "gridReference": "NN417661"
 },
 {
   "name": "Carn Dearg (Monadhliath)",
   "region": "Spean Bridge to Elgin",
   "height": "945m (approx 3100ft)",
   "latitude": "57.09145",
   "longitude": "-4.254352",
   "gridReference": "NH635023"
 },
 {
   "name": "Carn Dearg (Loch Pattack)",
   "region": "Fort William to Loch Ericht",
   "height": "1034m (approx 3392ft)",
   "latitude": "56.854921",
   "longitude": "-4.454983",
   "gridReference": "NN504764"
 },
 {
   "name": "Carn Eige (Carn Eighe)",
   "region": "Loch Duich to Loch Ness, South of Loch Mullardoch",
   "height": "1183m (approx 3881ft)",
   "latitude": "57.287803",
   "longitude": "-5.11613",
   "gridReference": "NH123262"
 },
 {
   "name": "Carn Ghluasaid",
   "region": "Loch Duich to Loch Ness, South of Loch Mullardoch",
   "height": "957m (approx 3140ft)",
   "latitude": "57.165811",
   "longitude": "-5.069453",
   "gridReference": "NH145125"
 },
 {
   "name": "Carn Gorm",
   "region": "Loch Rannoch to Loch Tay",
   "height": "1029m (approx 3376ft)",
   "latitude": "56.621966",
   "longitude": "-4.22628",
   "gridReference": "NN635500"
 },
 {
   "name": "Carn Liath",
   "region": "Spean Bridge to Elgin",
   "height": "1005m (approx 3297ft)",
   "latitude": "56.97863",
   "longitude": "-4.515788",
   "gridReference": "NN472903"
 },
 {
   "name": "Carn Mairg",
   "region": "Loch Rannoch to Loch Tay",
   "height": "1042m (approx 3419ft)",
   "latitude": "56.634142",
   "longitude": "-4.147096",
   "gridReference": "NN684512"
 },
 {
   "name": "Carn Mor Dearg",
   "region": "Fort William to Loch Ericht",
   "height": "1220m (approx 4003ft)",
   "latitude": "56.804661",
   "longitude": "-4.987421",
   "gridReference": "NN177721"
 },
 {
   "name": "Carn Sgulain",
   "region": "Spean Bridge to Elgin",
   "height": "920m (approx 3018ft)",
   "latitude": "57.124268",
   "longitude": "-4.177043",
   "gridReference": "NH683058"
 },
 {
   "name": "Carn a'Chlamain",
   "region": "Forest of Atholl to Braemar and Blairgowrie",
   "height": "963m (approx 3159ft)",
   "latitude": "56.860961",
   "longitude": "-3.781143",
   "gridReference": "NN915758"
 },
 {
   "name": "Carn a'Choire Bhoidheach",
   "region": "Braemar to Montrose",
   "height": "1110m (approx 3642ft)",
   "latitude": "56.94533",
   "longitude": "-3.273892",
   "gridReference": "NO226845"
 },
 {
   "name": "Carn a'Gheoidh",
   "region": "Forest of Atholl to Braemar and Blairgowrie",
   "height": "975m (approx 3199ft)",
   "latitude": "56.873137",
   "longitude": "-3.466684",
   "gridReference": "NO107767"
 },
 {
   "name": "Carn a'Mhaim",
   "region": "The Caringorms",
   "height": "1037m (approx 3402ft)",
   "latitude": "57.03605",
   "longitude": "-3.659319",
   "gridReference": "NN994951"
 },
 {
   "name": "Carn an Fhidhleir (Carn Ealar)",
   "region": "Forest of Atholl to Braemar and Blairgowrie",
   "height": "994m (approx 3261ft)",
   "latitude": "56.936127",
   "longitude": "-3.802805",
   "gridReference": "NN904842"
 },
 {
   "name": "Carn an Righ",
   "region": "Forest of Atholl to Braemar and Blairgowrie",
   "height": "1029m (approx 3376ft)",
   "latitude": "56.876038",
   "longitude": "-3.596431",
   "gridReference": "NO028772"
 },
 {
   "name": "Carn an Tuirc",
   "region": "Braemar to Montrose",
   "height": "1019m (approx 3343ft)",
   "latitude": "56.907608",
   "longitude": "-3.358004",
   "gridReference": "NO174804"
 },
 {
   "name": "Carn an t-Sagairt Mor",
   "region": "Braemar to Montrose",
   "height": "1047m (approx 3435ft)",
   "latitude": "56.943229",
   "longitude": "-3.303409",
   "gridReference": "NO208843"
 },
 {
   "name": "Carn na Caim",
   "region": "Loch Ericht to Glen Tromie and Glen Garry",
   "height": "941m (approx 3087ft)",
   "latitude": "56.911343",
   "longitude": "-4.174487",
   "gridReference": "NN677821"
 },
 {
   "name": "Carn nan Gobhar (Strathfarrar)",
   "region": "Kyle of Lochalsh to Inverness, North of Loch Mullardoch",
   "height": "992m (approx 3255ft)",
   "latitude": "57.452517",
   "longitude": "-4.880033",
   "gridReference": "NH273439"
 },
 {

 }
]}
