{"munros": [{
    "description": "A'Bhuidheanach Bheag is a broad, domed summit on the spacious plateau to the east of the Drumochter Pass.",
    "name": "A'Bhuidheanach Bheag",
    "region": "Loch Ericht to Glen Tromie and Glen Garry",
    "height": "937m (approx 3074ft)",
    "latitude": "56.870459",
    "longitude": "-4.200008",
    "gridReference": "NN660776",
    "difficulty": "Intermediate"
  },
  {
    "description": "A'Chailleach is the westernmost of the Fannichs.",
    "name": "A'Chailleach",
    "region": "Loch Maree to Loch Broom and Garve",
    "height": "997m (approx 3271ft)",
    "latitude": "57.693754",
    "longitude": "-5.129114",
    "gridReference": "NH136714",
    "difficulty": "Intermediate"
 },
 {
    "description": "Topped by a big cairn, A'Chailleach is the most asceneded and perhaps the finest of the Monadhliath.",
    "name": "A'Chailleach (Monadhliath)",
    "region": "Spean Bridge to Elgin",
    "height": "930m (approx 3051ft)",
    "latitude": "57.10895",
    "longitude": "-4.179447",
    "gridReference": "NH681041",
    "difficulty": "Intermediate"
 },
 {
    "description": "A'Chraileag is a massive mountain and, despite being lesser known than many of its neighbours, is actually the highest summit in Kintail.",
    "name": "A'Chralaig",
    "region": "Loch Duich to Loch Ness, South of Loch Mullardoch",
    "height": "1120m (approx 3675ft)",
    "latitude": "57.184351",
    "longitude": "-5.155414",
    "gridReference": "NH094148",
    "difficulty": "Intermediate"
 },
 {
    "description": "A'Ghlas-bheinn is a rough and rocky little mountain.",
    "name": "A'Ghlas-bheinn",
    "region": "Loch Duich to Loch Ness, South of Loch Mullardoch",
    "height": "918m (approx 3012ft)",
    "latitude": "57.254236",
    "longitude": "-5.304025",
    "gridReference": "NH008230",
    "difficulty": "Intermediate"
 },
 {
    "description": "A'Mhaighdean is a magnificent castellated mountain with dramatic cliffs, and one of the finest viewpoints in Britain.",
    "name": "A'Mhaighdean",
    "region": "Loch Maree to Loch Broom and Garve",
    "height": "967m (approx 3173ft)",
    "latitude": "57.719609",
    "longitude": "-5.348044",
    "gridReference": "NH007749",
    "difficulty": "Hard"
 },
 {
    "description": "A'Mharconaich is the most distinctive of the mountains above the Drumochter Pass, showing a steep nose to the northeast.",
    "name": "A'Mharconaich",
    "region": "Loch Ericht to Glen Tromie and Glen Garry",
    "height": "975m (approx 3199ft)",
    "latitude": "56.856241",
    "longitude": "-4.291031",
    "gridReference": "NN604762",
    "difficulty": "Intermediate"
 },
 {
    "description": "Am Basteir is a vertically-sided blade of rock.",
    "name": "Am Basteir",
    "region": "Isle of Skye",
    "height": "934m (approx 3064ft)",
    "latitude": "57.247992",
    "longitude": "-6.204116",
    "gridReference": "NG465253",
    "difficulty": "Hard"
 },
 {
    "description": "Am Bodach is a fine, steep and stony mountain.",
    "name": "Am Bodach",
    "region": "Fort William to Loch Ericht",
    "height": "1032m (approx 3386ft)",
    "latitude": "56.740924",
    "longitude": "-4.983993",
    "gridReference": "NN176650",
    "difficulty": "Hard"
 },
 {
    "description": "Am Faochagach is a rounded Munro.",
    "name": "Am Faochagach",
    "region": "Ullapool to the Moray Firth",
    "height": "954m (approx 3130ft)",
    "latitude": "57.771239",
    "longitude": "-4.854914",
    "gridReference": "NH303793",
    "difficulty": "Intermediate"
 },
 {
    "description": "An Caisteal takes the form of a long ridged mountain and its traverse is very enjoyable with interesting features and extensive views over the sea.",
    "name": "An Caisteal",
    "region": "Firth of Clyde to Strathtay",
    "height": "995m (approx 3264ft)",
    "latitude": "56.338251",
    "longitude": "-4.625574",
    "gridReference": "NN378193",
    "difficulty": "Intermediate"
 },
 {
    "description": "An Coileachan is the easternmost of the Fannichs, a steep-sided dome rising to the south of Loch Gorm.",
    "name": "An Coileachan",
    "region": "Loch Maree to Loch Broom and Garve",
    "height": "923m (approx 3028ft)",
    "latitude": "57.667484",
    "longitude": "-4.950736",
    "gridReference": "NH241680",
    "difficulty": "Intermediate"
 },
 {
    "description": "An Gearanach is a magnificent ridge extending north from the main spine of the Mamores.",
    "name": "An Gearanach",
    "region": "Fort William to Loch Ericht",
    "height": "982m (approx 3222ft)",
    "latitude": "56.758399",
    "longitude": "-4.967379",
    "gridReference": "NN187669",
    "difficulty": "Intermediate"
 },
 {
    "description": "An Riabhachan",
    "name": "An Riabhachan",
    "region": "Kyle of Lochalsh to Inverness, North of Loch Mullardoch",
    "height": "1130m (approx 3707ft)",
    "latitude": "57.361765",
    "longitude": "-5.105769",
    "gridReference": "NH133344",
    "difficulty": "Intermediate"
 },
 {
    "description": "",
    "name": "An Sgarsoch",
    "region": "Forest of Atholl to Braemar and Blairgowrie",
    "height": "1006m (approx 3301ft)",
    "latitude": "56.931418",
    "longitude": "-3.754918",
    "gridReference": "NN933836",
    "difficulty": ""
 },
 {
    "description": "",
    "name": "An Socach (Affric)",
    "region": "Loch Duich to Loch Ness, South of Loch Mullardoch",
    "height": "921m (approx 3022ft)",
    "latitude": "57.25765",
    "longitude": "-5.171635",
    "gridReference": "NH088230",
    "difficulty": ""
 },
 {
    "description": "",
    "name": "An Socach (Braemar)",
    "region": "Forest of Atholl to Braemar and Blairgowrie",
    "height": "944m {approx 3097ft}",
    "latitude": "56.901326",
    "longitude": "-3.513766",
    "gridReference": "NO079799",
    "difficulty": ""
 },
 {
    "description": "",
    "name": "An Socach (Mullardoch)",
    "region": "Kyle of Lochalsh to Inverness, North of Loch Mullardoch",
    "height": "1069m (approx 3507ft)",
    "latitude": "57.349637",
    "longitude": "-5.159616",
    "gridReference": "NH100332",
    "difficulty": ""
 },
 {
    "description": "",
    "name": "An Stuc",
    "region": "Loch Rannoch to Loch Tay",
    "height": "1118m (approx 3668ft)",
    "latitude": "56.56014",
    "longitude": "-4.216137",
    "gridReference": "NN639431",
    "difficulty": ""
 },
 {
   "description": "",
   "name": "Aonach Air Chrith",
   "region": "Glen Shiel to Glenfinnan",
   "height": "1021m (approx 3350ft)",
   "latitude": "57.124564",
   "longitude": "-5.22301",
   "gridReference": "NH050083",
   "difficulty": ""
 },
 {
    "description": "",
    "name": "Aonach Beag (Alder)",
    "region": "Fort William to Loch Ericht",
    "height": "1118m (approx 3668ft)",
    "latitude": "56.832741",
    "longitude": "-4.530583",
    "gridReference": "NN457741",
    "difficulty": ""
 },
 {
    "description": "",
    "name": "Aonach Beag (Nevis Range)",
    "region": "Fort William to Loch Ericht",
    "height": "1234m (approx 4049ft)",
    "latitude": "56.800018",
    "longitude": "-4.955925",
    "gridReference": "NN196715",
    "difficulty": ""
 },
 {
   "description": "",
   "name": "Aonach Meadhoin",
   "region": "Loch Duich to Loch Ness, South of Loch Mullardoch",
   "height":  "1001m (approx 3284ft)",
   "latitude": "57.172593",
   "longitude": "-5.228879",
   "gridReference": "NH049137",
   "difficulty": ""
 },
 {
   "description": "",
   "name": "Aonach Mor",
   "region": "Fort William to Loch Ericht",
   "height": "1221m (approx 4006ft)",
   "latitude": "56.812423",
   "longitude": "-4.963457",
   "gridReference": "NN192729",
   "difficulty": ""
 },
 {
   "description": "",
   "name": "Beinn a'Bhuird",
   "region": "The Cairngorms",
   "height": "1197m (approx 3927ft)",
   "latitude": "57.087476",
   "longitude": "-3.49989",
   "gridReference": "NJ092006",
   "difficulty": ""
 },
 {
   "description": "",
   "name": "Beinn a'Chaorainn (Cairngorms)",
   "region": "The Cairngorms",
   "height": "1082m (approx 3550ft)",
   "latitude": "57.09281",
   "longitude": "-3.577678",
   "gridReference": "NJ045013",
   "difficulty": ""
 },
 {
   "description": "",
   "name": "Beinn a'Chaorainn (Glen Spean)",
   "region": "Spean Bridge to Elgin",
   "height": "1050m (approx 3445ft)",
   "latitude": "56.929043",
   "longitude": "-4.653805",
   "gridReference": "NN386851",
   "difficulty": ""
 },
 {
   "description": "",
   "name": "Beinn a'Chlachair",
   "region": "Fort William to Loch Ericht",
   "height": "1087m (approx 3566ft)",
   "latitude": "56.869104",
   "longitude": "-4.510066",
   "gridReference": "NN471781",
   "difficulty": ""
 },
 {
   "description": "",
   "name": "Beinn a'Chleibh",
   "region": "Firth of Clyde to Strathtay",
   "height": "916m (approx 3005ft)",
   "latitude": "56.390226",
   "longitude": "-4.836569",
   "gridReference": "NN250256",
   "difficulty": ""
 },
 {
   "description": "",
   "name": "Beinn a'Chochuill",
   "region": "Loch Leven to Connel Bridge and Glen Lochy",
   "height": "979m (approx 3212ft)",
   "latitude": "56.44939",
   "longitude": "-5.069835",
   "gridReference": "NN109328",
   "difficulty": ""
 },
 {
   "description": "",
   "name": "Beinn a'Chreachain",
   "region": "Loch Rannoch to Loch Tay",
   "height": "1081m (approx 3547ft)",
   "latitude": "56.559754",
   "longitude": "-4.649042",
   "gridReference": "NN373440",
   "difficulty": ""
 },
 {
   "description": "",
   "name": "Beinn a'Chroin",
   "region": "Firth of Clyde to Strathay",
   "height": "940m (approx 3084ft)",
   "latitude": "56.332514",
   "longitude": "-4.599293",
   "gridReference": "NN394186",
   "difficulty": ""
 },
 {
   "description": "",
   "name": "Beinn Achaladair",
   "region": "Loch Rannoch to Loch Tay",
   "height": "1038m (approx 3406ft)",
   "latitude": "56.551561",
   "longitude": "-4.695661",
   "gridReference": "NN344432",
   "difficulty": ""
 },
 {
   "description": "",
   "name": "Beinn an Dothaidh",
   "region": "Loch Rannoch to Loch Tay",
   "height": "1004m (approx 3294ft)",
   "latitude": "56.529563",
   "longitude": "-4.715241",
   "gridReference": "NN331408",
   "difficulty": ""
 },
 {
   "description": "",
   "name": "Beinn Bheoil",
   "region": "Fort William to Loch Ericht",
   "height": "1019m (approx 3343ft)",
   "latitude": "56.813121",
   "longitude": "-4.432586",
   "gridReference": "NN516717",
   "difficulty": ""
 },
 {
   "description": "",
   "name": "Beinn Bhreac",
   "region": "The Cairngorms",
   "height": "931m (approx 3055ft)",
   "latitude": "57.055363",
   "longitude": "-3.554654",
   "gridReference": "NO058971",
   "difficulty": ""
 },
 {
   "description": "",
   "name": "Beinn Bhrotain",
   "region": "The Cairgorms",
   "height": "1157m (approx 3796ft)",
   "latitude": "57.00912",
   "longitude": "-3.723993",
   "gridReference": "NN954922",
   "difficulty": ""
 },
 {
   "description": "",
   "name": "Beinn Bhuidhe",
   "region": "Firth of Clyde to Strathtay",
   "height": "948m (approx 3110ft)",
   "latitude": "56.326551",
   "longitude": "-4.907879",
   "gridReference": "NN203187",
   "difficulty": ""
 },
 {
   "description": "",
   "name": "Beinn Chabhair",
   "region": "Firth of Clyde to Strathtay",
   "height": "933m (approx 3061ft)",
   "latitude": "56.325309",
   "longitude": "-4.642479",
   "gridReference": "NN367179",
   "difficulty": ""
 },
 {
   "description": "",
   "name": "Beinn Dearg (Blair Atholl)",
   "region": "Forest of Atholl to Braemar and Blairgowrie",
   "height": "1008m (approx 3307ft)",
   "latitude": "56.876505",
   "longitude": "-3.885268",
   "gridReference": "NN852777",
   "difficulty": ""
 },
 {
   "description": "",
   "name": "Beinn Dearg (Ullapool)",
   "region": "Ullapool to the Moray Firth",
   "height": "1084m (approx 3556ft)",
   "latitude": "57.785699",
   "longitude": "-4.930093",
   "gridReference": "NH259811",
   "difficulty": ""
 },
 {
   "description": "",
   "name": "Beinn Dorain",
   "region": "Loch Rannoch to Loch Tay",
   "height": "1076m (approx 3530ft)",
   "latitude": "56.502428",
   "longitude": "-4.723051",
   "gridReference": "NN325378",
   "difficulty": ""
 },
 {
   "description": "",
   "name": "Beinn Dubhchraig",
   "region": "Firth of Clyde to Strathtay",
   "height": "978m (approx 3209ft)",
   "latitude": "56.390508",
   "longitude": "-4.744222",
   "gridReference": "NN307254",
   "difficulty": ""
 },
 {
   "description": "",
   "name": "Beinn Eibhinn",
   "region": "Fort William to Loch Ericht",
   "height": "1102m (approx 3615ft)",
   "latitude": "56.825295",
   "longitude": "-4.543194",
   "gridReference": "NN449733",
   "difficulty": ""
 },
 {
   "description": "",
   "name": "Beinn Eunaich",
   "region": "Loch Leven to Connel Bridge and Glen Lochy",
   "height": "989m (approx 3245ft)",
   "latitude": "56.450425",
   "longitude": "-5.027715",
   "gridReference": "NN135328",
   "difficulty": ""
 },
 {
   "description": "",
   "name": "Beinn Fhada",
   "region": "Loch Duich to Loch Ness, South of Loch Mullardoch",
   "height": "1032m (approx 3386ft)",
   "latitude": "57.220591",
   "longitude": "-5.284443",
   "gridReference": "NH018192",
   "difficulty": ""
 },
 {
   "description": "",
   "name": "Beinn Fhionnlaidh",
   "region": "Loch Leven to Connel Bridge and Glen Lochy",
   "height": "959m (approx 3146ft)",
   "latitude": "56.600435",
   "longitude": "-5.1049",
   "gridReference": "NN095497",
   "difficulty": ""
 },
 {
   "description": "",
   "name": "Beinn Fhionnlaidh (Carn Eige)",
   "region": "Loch Duich to Loch Ness, South of Loch Mullardoch",
   "height": "1005m (approx 3297ft)",
   "latitude": "57.305413",
   "longitude": "-5.130907",
   "gridReference": "NH115282",
   "difficulty": ""
 },
 {
   "description": "",
   "name": "Beinn Ghlas",
   "region": "Loch Rannoch to Loch Tay",
   "height": "1103m (approx 3619ft)",
   "latitude": "56.535493",
   "longitude": "-4.237467",
   "gridReference": "NN625404",
   "difficulty": ""
 },
 {
   "description": "",
   "name": "Beinn Heasgarnich",
   "region": "Loch Rannoch to Loch Tay",
   "height": "1078m (approx 3537ft)",
   "latitude": "56.509966",
   "longitude": "-4.580547",
   "gridReference": "NN413383",
   "difficulty": ""
 },
 {
   "description": "",
   "name": "Beinn Ime",
   "region": "Firth of Clyde to Strathtay",
   "height": "1011m (approx 3317)",
   "latitude": "56.236067",
   "longitude": "-4.817087",
   "gridReference": "-4.817087",
   "difficulty": ""
 },
 {
   "description": "",
   "name": "Beinn Iutharn Mhor",
   "region": "Forest of Atholl to Braemar and Blairgowrie",
   "height": "1045m (approx 3428ft)",
   "latitude": "56.894352",
   "longitude": "-3.569302",
   "gridReference": "NO045792",
   "difficulty": ""
 },
 {
   "description": "",
   "name": "Beinn Liath Mhor",
   "region": "Loch Carron to Loch Maree",
   "height": "926m (approx 3038ft)",
   "latitude": "57.511449",
   "longitude": "-5.400759",
   "gridReference": "NG964519",
   "difficulty": ""
 },
 {
   "description": "",
   "name": "Beinn Liath Mhor Fannaich",
   "region": "Loch Maree to Loch Broom and Garve",
   "height": "954m (approx 3130ft)",
   "latitude": "57.706088",
   "longitude": "-4.990816",
   "gridReference": "NH219724",
   "difficulty": ""
 },
 {
   "description": "",
   "name": "Beinn Mhanach",
   "region": "Loch Rannoch to Loch Tay",
   "height": "953m (approx 3127ft)",
   "latitude": "56.533728",
   "longitude": "-4.647224",
   "gridReference": "NN373411",
   "difficulty": ""
 },
 {
   "description": "",
   "name": "Beinn Mheadhoin",
   "region": "The Cairngorms",
   "height": "1182m (approx 3878ft)",
   "latitude": "57.095063",
   "longitude": "-3.612436",
   "gridReference": "NJ024016",
   "difficulty": ""
 },
 {
   "description": "",
   "name": "Beinn na Lap",
   "region": "Fort William to Loch Ericht",
   "height": "936m (approx 3071ft)",
   "latitude": "56.788701",
   "longitude": "-4.660256",
   "gridReference": "NN376695",
   "difficulty": ""
 },
 {
   "description": "",
   "name": "Beinn nan Aighenan",
   "region": "Loch Leven to Connel Bridge and Glen Lochy",
   "height": "960m (approx 3150ft)",
   "latitude": "56.52002",
   "longitude": "-5.012127",
   "gridReference": "NN148405",
   "difficulty": ""
 },
 {
   "description": "",
   "name": "Beinn Narnain",
   "region": "Firth of Clyde to Strathtay",
   "height": "927m (approx 3041ft)",
   "latitude": "56.220499",
   "longitude": "-4.790131",
   "gridReference": "NN271066",
   "difficulty": ""
 },
 {
   "description": "",
   "name": "Beinn Sgritheall",
   "region": "Glen Shiel to Glenfinnan",
   "height": "974m (approx 3196ft)",
   "latitude": "57.153136",
   "longitude": "-5.581167",
   "gridReference": "NG835126",
   "difficulty": ""
 },
 {
   "description": "",
   "name": "Beinn Sgulaird",
   "region": "Loch Leven to Connel Bridge and Glen Lochy",
   "height": "937m (approx 3074ft)",
   "latitude": "56.56552",
   "longitude": "-5.17042",
   "gridReference": "NN053460",
   "difficulty": ""
 },
 {
   "description": "",
   "name": "Beinn Tarsuinn",
   "region": "Loch Maree to Loch Broom and Garve",
   "height": "937m (approx 3074ft)",
   "latitude": "57.702185",
   "longitude": "-5.292704",
   "gridReference": "NH039728",
   "difficulty": ""
 },
 {
   "description": "",
   "name": "Beinn Teallach",
   "region": "Spean Bridge to Elgin",
   "height": "915m (approx 3002ft)",
   "latitude": "56.935344",
   "longitude": "-4.695353",
   "gridReference": "NN361859",
   "difficulty": ""
 },
 {
   "description": "",
   "name": "Beinn Tulaichean",
   "region": "Firth of Clyde to Strathtay",
   "height": "946m (approx 3104ft)",
   "latitude": "56.34223",
   "longitude": "-4.56435",
   "gridReference": "NN416196",
   "difficulty": ""
 },
 {
   "description": "",
   "name": "Beinn Udlamain",
   "region": "Loch Ericht to Glen Tromie and Glen Garry",
   "height": "1010m (approx 3314ft)",
   "latitude": "56.834837",
   "longitude": "-4.330709",
   "gridReference": "NN579739",
   "difficulty": ""
 },
 {
   "description": "",
   "name": "Ben Alder",
   "region": "Fort William to Loch Ericht",
   "height": "1148m (approx 3766ft)",
   "latitude": "56.813377",
   "longitude": "-4.465373",
   "gridReference": "NN496718",
   "difficulty": ""
 },
 {
   "description": "",
   "name": "Ben Avon",
   "region": "The Cairngorms",
   "height": "1171m (approx 3842ft)",
   "latitude": "57.099006",
   "longitude": "-3.435976",
   "gridReference": "NJ131018",
   "difficulty": ""
 },
 {
   "description": "",
   "name": "Ben Challum",
   "region": "Loch Rannoch to Loch Tay",
   "height": "1025m (approx 3363ft)",
   "latitude": "56.454301",
   "longitude": "-4.620593",
   "gridReference": "NN386322",
   "difficulty": ""
 },
 {
   "description": "",
   "name": "Ben Chonzie",
   "region": "Firth of Clyde to Strathtay",
   "height": "931m (approx 3054ft)",
   "latitude": "56.453396",
   "longitude": "-3.992455",
   "gridReference": "NN773308",
   "difficulty": ""
 },
 {
   "description": "",
   "name": "Ben Cruachan",
   "region": "Loch Leven to Connel Bridge and Glen Lochy",
   "height": "1126m (approx 3691ft)",
   "latitude": "56.426239",
   "longitude": "-5.132855",
   "gridReference": "NN069304",
   "difficulty": ""
 },
 {
   "description": "",
   "name": "Ben Hope",
   "region": "The Far North",
   "height": "927m (approx 3041ft)",
   "latitude": "58.412754",
   "longitude": "-4.608707",
   "gridReference": "NC477501",
   "difficulty": ""
 },
 {
   "description": "",
   "name": "Ben Kilbreck",
   "region": "The Far North",
   "height": "962m (approx 3156ft)",
   "latitude": "58.235117",
   "longitude": "-4.41165",
   "gridReference": "NC585299",
   "difficulty": ""
 },
 {
   "description": "",
   "name": "Ben Lawers",
   "region": "Loch Rannoch to Loch Tay",
   "height": "1214m (approx 3983ft)",
   "latitude": "56.544762",
   "longitude": "-4.221745",
   "gridReference": "NN635414",
   "difficulty": ""
 },
 {
   "description": "",
   "name": "Ben Lomond",
   "region": "Firth of Clyde to Strathtay",
   "height": "973m (approx 3192ft)",
   "latitude": "56.189787",
   "longitude": "-4.633151",
   "gridReference": "NN367028",
   "difficulty": ""
 },
 {
   "description": "",
   "name": "Ben Lui",
   "region": "Firth of Clyde to Strathtay",
   "height": "1130m (approx 3707ft)",
   "latitude": "56.397097",
   "longitude": "-4.811148",
   "gridReference": "NN266263",
   "difficulty": ""
 },
 {
   "description": "",
   "name": "Ben Macdui",
   "region": "The Cairngorms",
   "height": "1309m (approx 4295ft)",
   "latitude": "57.070063",
   "longitude": "-3.669085",
   "gridReference": "NN989989",
   "difficulty": ""
 },
 {
   "description": "",
   "name": "Ben More",
   "region": "Firth of Clyde to Strathtay",
   "height": "1174m (approx 3852ft)",
   "latitude": "56.385845",
   "longitude": "-4.541359",
   "gridReference": "NN432244",
   "difficulty": ""
 },
 {
   "description": "",
   "name": "Ben More (Mull)",
   "region": "Isle of Mull",
   "height": "966m (approx 3169ft)",
   "latitude": "56.424168",
   "longitude": "-6.015276",
   "gridReference": "NM525330",
   "difficulty": ""
 },
 {
   "description": "",
   "name": "Ben More Assynt",
   "region": "The Far North",
   "height": "998m (approx 3274ft)",
   "latitude": "58.13782",
   "longitude": "-4.858724",
   "gridReference": "NC318201",
   "difficulty": ""
 },
 {
   "description": "",
   "name": "Ben Nevis",
   "region": "Fort William to Loch Ericht",
   "height": "1344m (approx 4409ft)",
   "latitude": "56.796154",
   "longitude": "-5.004763",
   "gridReference": "NN166712",
   "difficulty": ""
 },
 {
   "description": "",
   "name": "Ben Oss",
   "region": "Firth of Clyde to Strathtay",
   "height": "1029m (approx 3376ft)",
   "latitude": "56.38889",
   "longitude": "-4.776514",
   "gridReference": "NN287253",
   "difficulty": ""
 },
 {
   "description": "",
   "name": "Ben Starav",
   "region": "Loch Leven to Connel Bridge and Glen Lochy",
   "height": "1078m (approx 3537ft)",
   "latitude": "56.538846",
   "longitude": "-5.051043",
   "gridReference": "NN125427",
   "difficulty": ""
 },
 {
   "description": "",
   "name": "Ben Vane",
   "region": "Firth of Clyde to Strathtay",
   "height": "915m (approx 3002ft)",
   "latitude": "56.249433",
   "longitude": "-4.78255",
   "gridReference": "NN277098",
   "difficulty": ""
 },
 {
   "description": "",
   "name": "Ben Vorlich (Loch Earn)",
   "region": "Firth of Clyde to Strathtay",
   "height": "982m (approx 3222ft)",
   "latitude": "56.342595",
   "longitude": "-4.219685",
   "gridReference": "NN629189",
   "difficulty": ""
 },
 {
   "description": "",
   "name": "Ben Vorlich (Loch Lomond)",
   "region": "Firth of Clyde to Strathtay",
   "height": "943m (approx 3094ft)",
   "latitude": "56.273415",
   "longitude": "-4.755212",
   "gridReference": "NN295124",
   "difficulty": ""
 },
 {
   "description": "",
   "name": "Ben Wyvis",
   "region": "Ullapool to the Moray Firth",
   "height": "1046m (approx 3432ft)",
   "latitude": "57.678304",
   "longitude": "-4.579189",
   "gridReference": "NH463683",
   "difficulty": ""
 },
 {
   "description": "",
   "name": "Bidean nam Bian",
   "region": "Loch Leven to Connel Bridge and Glen Lochy",
   "height": "1150m (approx 3773ft)",
   "latitude": "56.642732",
   "longitude": "-5.030066",
   "gridReference": "NN143542",
   "difficulty": ""
 },
 {
   "description": "",
   "name": "Bidein a'Choire Sheasgaich",
   "region": "Kyle of Lochalsh to Inverness, North of Loch Mullardoch",
   "height": "945m (approx 3100ft)",
   "latitude": "57.41923",
   "longitude": "-5.250579",
   "gridReference": "NH049412",
   "difficulty": ""
 },
 {
    "description": "",
    "name": "Bidein a'Ghlas Thuill (An Teallach)",
    "region": "Loch Maree to Loch Broom and Garve",
    "height": "1062m (approx 3484ft)",
    "latitude": "57.806571",
    "longitude": "-5.253386",
    "gridReference": "NH068843",
    "difficulty": ""
 },
 {
   "description": "",
   "name": "Binnein Beag",
   "region": "Fort William to Loch Ericht",
   "height": "943m (approx 3094ft)",
   "latitude": "56.766887",
   "longitude": "-4.912399",
   "gridReference": "NN221677",
   "difficulty": ""
 },
 {
   "description": "",
   "name": "Binnein Mor",
   "region": "Fort William to Loch Ericht",
   "height": "1130m (approx 3707ft)",
   "latitude": "56.753981",
   "longitude": "-4.926125",
   "gridReference": "NN212663",
   "difficulty": ""
 },
 {
   "description": "",
   "name": "Bla Bheinn",
   "region": "Isle of Skye",
   "height": "928m (approx 3045ft)",
   "latitude": "57.219236",
   "longitude": "-6.094748",
   "gridReference": "NG529217",
   "difficulty": ""
 },
 {
   "description": "",
   "name": "Braeriach",
   "region": "The Cairngorms",
   "height": "1296m (approx 4252ft)",
   "latitude": "57.078237",
   "longitude": "-3.728848",
   "gridReference": "NN953999",
   "difficulty": ""
 },
 {
   "description": "",
   "name": "Braigh Coire Chruinn-bhalgain",
   "region": "Forest of Atholl to Braemar and Blaigowrie",
   "height": "1070m (approx 3510ft)",
   "latitude": "56.831123",
   "longitude": "-3.730555",
   "gridReference": "NN945724",
   "difficulty": ""
 },
 {
   "description": "",
   "name": "Broad Cairn",
   "region": "Braemar to Montrose",
   "height": "998m (approx 3274ft)",
   "latitude": "56.918618",
   "longitude": "-3.249984",
   "gridReference": "NO240815",
   "difficulty": ""
 },
 {
   "description": "",
   "name": "Bruach na Frithe",
   "region": "Isle of Skye",
   "height": "958m (approx 3143ft)",
   "latitude": "57.246874",
   "longitude": "-6.210625",
   "gridReference": "NG461252",
   "difficulty": ""
 },
 {
   "description": "",
   "name": "Bynack More",
   "region": "The Cairngorms",
   "height": "1090m (approx 3576ft)",
   "latitude": "57.137626",
   "longitude": "-3.586194",
   "gridReference": "NJ041063",
   "difficulty": ""
 },
 {
   "description": "",
   "name": "Cairn Bannoch",
   "region": "Braemar to Montrose",
   "height": "1012m (approx 3320ft)",
   "latitude": "56.9273",
   "longitude": "-3.27985",
   "gridReference": "NO222825",
   "difficulty": ""
 },
 {
   "description": "",
   "name": "Cairn Gorm",
   "region": "The Cairngorms",
   "height": "1245m (approx 4085ft)",
   "latitude": "57.116207",
   "longitude": "-3.644735",
   "gridReference": "NJ005040",
   "difficulty": ""
 },
 {
   "description": "",
   "name": "Cairn of Claise",
   "region": "Braemar to Montrose",
   "height": "1064m (approx 3491ft)",
   "latitude": "56.893433",
   "longitude": "-3.339432",
   "gridReference": "NO185788",
   "difficulty": ""
 },
 {
   "description": "",
   "name": "Cairn Toul",
   "region": "The Cairngorms",
   "height": "1291m (approx 4236ft)",
   "latitude": "57.05422",
   "longitude": "-3.711243",
   "gridReference": "NN963972",
   "difficulty": ""
 },
 {
   "description": "",
   "name": "Carn a'Chlamain",
   "region": "Forest of Atholl to Braemar and Blairgowrie",
   "height": "963m (approx 3159ft)",
   "latitude": "56.860961",
   "longitude": "-3.781143",
   "gridReference": "NN915758",
   "difficulty": ""
 },
 {
   "description": "",
   "name": "Carn a'Choire Bhoidheach",
   "region": "Braemar to Montrose",
   "height": "1110m (approx 3642ft)",
   "latitude": "56.94533",
   "longitude": "-3.273892",
   "gridReference": "NO226845",
   "difficulty": ""
 },
 {
   "description": "",
   "name": "Carn a'Gheoidh",
   "region": "Forest of Atholl to Braemar and Blairgowrie",
   "height": "975m (approx 3199ft)",
   "latitude": "56.873137",
   "longitude": "-3.466684",
   "gridReference": "NO107767",
   "difficulty": ""
 },
 {
   "description": "",
   "name": "Carn a'Mhaim",
   "region": "The Caringorms",
   "height": "1037m (approx 3402ft)",
   "latitude": "57.03605",
   "longitude": "-3.659319",
   "gridReference": "NN994951",
   "difficulty": ""
 },
 {
   "description": "",
   "name": "Carn an Fhidhleir (Carn Ealar)",
   "region": "Forest of Atholl to Braemar and Blairgowrie",
   "height": "994m (approx 3261ft)",
   "latitude": "56.936127",
   "longitude": "-3.802805",
   "gridReference": "NN904842",
   "difficulty": ""
 },
 {
   "description": "",
   "name": "Carn an Righ",
   "region": "Forest of Atholl to Braemar and Blairgowrie",
   "height": "1029m (approx 3376ft)",
   "latitude": "56.876038",
   "longitude": "-3.596431",
   "gridReference": "NO028772",
   "difficulty": ""
 },
 {
   "description": "",
   "name": "Carn an t-Sagairt Mor",
   "region": "Braemar to Montrose",
   "height": "1047m (approx 3435ft)",
   "latitude": "56.943229",
   "longitude": "-3.303409",
   "gridReference": "NO208843",
   "difficulty": ""
 },
 {
   "description": "",
   "name": "Carn an Tuirc",
   "region": "Braemar to Montrose",
   "height": "1019m (approx 3343ft)",
   "latitude": "56.907608",
   "longitude": "-3.358004",
   "gridReference": "NO174804",
   "difficulty": ""
 },
 {
   "description": "",
   "name": "Carn Aosda",
   "region": "Forest of Atholl to Braemar and Blairgowrie",
   "height": "917m (approx 3009ft)",
   "latitude": "56.896101",
   "longitude": "-3.423256",
   "gridReference": "NO134792",
   "difficulty": ""
 },
 {
   "description": "",
   "name": "Carn Bhac",
   "region": "Forest of Atholl to Braemar and Blairgowrie",
   "height": "946m (approx 3104ft)",
   "latitude": "56.930396",
   "longitude": "-3.560955",
   "gridReference": "NO051832",
   "difficulty": ""
 },
 {
   "description": "",
   "name": "Carn Dearg (Corrour)",
   "region": "Fort William to Loch Ericht",
   "height": "941m (approx 3087ft)",
   "latitude": "56.7596",
   "longitude": "-4.591109",
   "gridReference": "NN417661",
   "difficulty": ""
 },
 {
   "description": "",
   "name": "Carn Dearg (Loch Pattack)",
   "region": "Fort William to Loch Ericht",
   "height": "1034m (approx 3392ft)",
   "latitude": "56.854921",
   "longitude": "-4.454983",
   "gridReference": "NN504764",
   "difficulty": ""
 },
 {
   "description": "",
   "name": "Carn Dearg (Monadhliath)",
   "region": "Spean Bridge to Elgin",
   "height": "945m (approx 3100ft)",
   "latitude": "57.09145",
   "longitude": "-4.254352",
   "gridReference": "NH635023",
   "difficulty": ""
 },
 {
   "description": "",
   "name": "Carn Eige",
   "region": "Loch Duich to Loch Ness, South of Loch Mullardoch",
   "height": "1183m (approx 3881ft)",
   "latitude": "57.287803",
   "longitude": "-5.11613",
   "gridReference": "NH123262",
   "difficulty": ""
 },
 {
   "description": "",
   "name": "Carn Ghluasaid",
   "region": "Loch Duich to Loch Ness, South of Loch Mullardoch",
   "height": "957m (approx 3140ft)",
   "latitude": "57.165811",
   "longitude": "-5.069453",
   "gridReference": "NH145125",
   "difficulty": ""
 },
 {
   "description": "",
   "name": "Carn Gorm",
   "region": "Loch Rannoch to Loch Tay",
   "height": "1029m (approx 3376ft)",
   "latitude": "56.621966",
   "longitude": "-4.22628",
   "gridReference": "NN635500",
   "difficulty": ""
 },
 {
   "description": "",
   "name": "Carn Liath (Beinn a'Ghlo)",
   "region": "Forest of Atholl to Braemar and Blairgowrie",
   "height": "975m (approx 3199ft)",
   "latitude": "56.807571",
   "longitude": "-3.744211",
   "gridReference": "NN936698",
   "difficulty": ""
 },
 {
   "description": "",
   "name": "Carn Liath (Creag Meagaidh)",
   "region": "Spean Bridge to Elgin",
   "height": "1005m (approx 3297ft)",
   "latitude": "56.97863",
   "longitude": "-4.515788",
   "gridReference": "NN472903",
   "difficulty": ""
 },
 {
   "description": "",
   "name": "Carn Mairg",
   "region": "Loch Rannoch to Loch Tay",
   "height": "1042m (approx 3419ft)",
   "latitude": "56.634142",
   "longitude": "-4.147096",
   "gridReference": "NN684512",
   "difficulty": ""
 },
 {
   "description": "",
   "name": "Carn Mor Dearg",
   "region": "Fort William to Loch Ericht",
   "height": "1220m (approx 4003ft)",
   "latitude": "56.804661",
   "longitude": "-4.987421",
   "gridReference": "NN177721",
   "difficulty": ""
 },
 {
   "description": "",
   "name": "Carn na Caim",
   "region": "Loch Ericht to Glen Tromie and Glen Garry",
   "height": "941m (approx 3087ft)",
   "latitude": "56.911343",
   "longitude": "-4.174487",
   "gridReference": "NN677821",
   "difficulty": ""
 },
 {
   "description": "",
   "name": "Carn nan Gabhar",
   "region": "Forest of Atholl to Braemar and Blairgowrie",
   "height": "1129m (approx 3704ft)",
   "latitude": "56.839788",
   "longitude": "-3.688331",
   "gridReference": "NN971733",
   "difficulty": ""
 },
 {
   "description": "",
   "name": "Carn nan Gobhar (Loch Mullardoch)",
   "region": "Kyle of Lochalsh to Inverness, North of Loch Mullardoch",
   "height": "992m (approx 3255ft)",
   "latitude": "57.36281",
   "longitude": "-5.026017",
   "gridReference": "NH181343",
   "difficulty": ""
 },
 {
   "description": "",
   "name": "Carn nan Gobhar (Strathfarrar)",
   "region": "Kyle of Lochalsh to Inverness, North of Loch Mullardoch",
   "height": "992m (approx 3255ft)",
   "latitude": "57.452517",
   "longitude": "-4.880033",
   "gridReference": "NH273439",
   "difficulty": ""
 },
 {
   "description": "",
   "name": "Carn Sgulain",
   "region": "Spean Bridge to Elgin",
   "height": "920m (approx 3018ft)",
   "latitude": "57.124268",
   "longitude": "-4.177043",
   "gridReference": "NH683058",
   "difficulty": ""
 },
 {
   "description": "",
   "name": "Chno Dearg",
   "region": "Fort William to Loch Ericht",
   "height": "1046m (approx 3432ft)",
   "latitude": "56.830016",
   "longitude": "-4.661547",
   "gridReference": "NN377741",
   "difficulty": ""
 },
 {
   "description": "",
   "name": "Ciste Dhubh",
   "region": "Loch Duich to Loch Ness, South of Loch Mullardoch",
   "height": "979m (approx 3212ft)",
   "latitude": "57.199155",
   "longitude": "-5.209671",
   "gridReference": "NH062166",
   "difficulty": ""
 },
 {
   "description": "",
   "name": "Cona' Mheall",
   "region": "Ullapool to the Moray Firth",
   "height": "977m (approx 3205ft)",
   "latitude": "57.790765",
   "longitude": "-4.905261",
   "gridReference": "NH274816",
   "difficulty": ""
 },
 {
   "description": "",
   "name": "Conival",
   "region": "The Far North",
   "height": "987m (approx 3238ft)",
   "latitude": "58.135452",
   "longitude": "-4.884022",
   "gridReference": "NC303199",
   "difficulty": ""
 },
 {
   "description": "",
   "name": "Creag a'Mhaim",
   "region": "Glen Shiel to Glenfinnan",
   "height": "947m (approx 3107ft)",
   "latitude": "57.120376",
   "longitude": "-5.161534",
   "gridReference": "NH087077",
   "difficulty": ""
 },
 {
   "description": "",
   "name": "Creag Leacach",
   "region": "Braemar to Montrose",
   "height": "987m (approx 3238ft)",
   "latitude": "56.85426",
   "longitude": "-3.388869",
   "gridReference": "NO154745",
   "difficulty": ""
 },
 {
   "description": "",
   "name": "Creag Meagaidh",
   "region": "Spean Bridge to Elgin",
   "height": "1129m (approx 3704ft)",
   "latitude": "56.951686",
   "longitude": "-4.602784",
   "gridReference": "NN418875",
   "difficulty": ""
 },
 {
   "description": "",
   "name": "Creag Mhor (Glen Lochay)",
   "region": "Loch Rannoch to Loch Tay",
   "height": "1047m (approx 3435ft)",
   "latitude": "56.489474",
   "longitude": "-4.614896",
   "gridReference": "NN391361",
   "difficulty": ""
 },
 {
   "description": "",
   "name": "Creag Mhor (Meall na Aighean)",
   "region": "Loch Rannoch to Loch Tay",
   "height": "981m (approx 3219ft)",
   "latitude": "56.620058",
   "longitude": "-4.129996",
   "gridReference": "NN694496",
   "difficulty": ""
 },
 {
   "description": "",
   "name": "Creag nan Damh",
   "region": "Glen Shiel to Glenfinnan",
   "height": "918m (approx 3012ft)",
   "latitude": "57.146423",
   "longitude": "-5.335745",
   "gridReference": "NG983111",
   "difficulty": ""
 },
 {
   "description": "",
   "name": "Creag Pitridh",
   "region": "Fort William to Loch Ericht",
   "height": "924m (approx 3032ft)",
   "latitude": "56.899246",
   "longitude": "-4.485811",
   "gridReference": "NN487814",
   "difficulty": ""
 },
 {
   "description": "",
   "name": "Creise",
   "region": "Loch Leven to Connel Bridge and Glen Lochy",
   "height": "1100m (approx 3609ft)",
   "latitude": "56.614103",
   "longitude": "-4.872906",
   "gridReference": "NN238506",
   "difficulty": ""
 },
 {
   "description": "",
   "name": "Cruach Ardrain",
   "region": "Firth of Clyde to Strathtay",
   "height": "1046m (approx 3432ft)",
   "latitude": "56.356356",
   "longitude": "-4.576632",
   "gridReference": "NN409212",
   "difficulty": ""
 },
 {
   "description": "",
   "name": "Derry Cairngorm",
   "region": "The Cairngorms",
   "height": "1155m (approx 3789ft)",
   "latitude": "57.062587",
   "longitude": "-3.622572",
   "gridReference": "NO017980",
   "difficulty": ""
 },
 {
   "description": "",
   "name": "Driesh",
   "region": "Braemar to Montrose",
   "height": "947m (approx 3107ft)",
   "latitude": "56.847264",
   "longitude": "-3.196778",
   "gridReference": "NO271735",
   "difficulty": ""
 },
 {
   "description": "",
   "name": "Druim Shionnach",
   "region": "Glen Shiel to Glenfinnan",
   "height": "987m (approx 3238ft)",
   "latitude": "57.126112",
   "longitude": "-5.183509",
   "gridReference": "NH074084",
   "difficulty": ""
 },
 {
   "description": "",
   "name": "Eididh nan Clach Geala",
   "region": "Ullapool to the Moray Firth",
   "height": "926m (approx 3038ft)",
   "latitude": "57.81343",
   "longitude": "-4.935712",
   "gridReference": "NH257842",
   "difficulty": ""
 },
 {
   "description": "",
   "name": "Fionn Bheinn",
   "region": "Loch Maree to Loch Broom and Garve",
   "height": "933m (approx 3061ft)",
   "latitude": "57.610795",
   "longitude": "-5.103553",
   "gridReference": "NH147621",
   "difficulty": ""
 },
 {
   "description": "",
   "name": "Gairich",
   "region": "Glen Shiel to Glenfinnan",
   "height": "919m (approx 3015ft)",
   "latitude": "57.044211",
   "longitude": "-5.257302",
   "gridReference": "NN025995",
   "difficulty": ""
 },
 {
   "description": "",
   "name": "Garbh Chioch Mhor",
   "region": "Glen Shiel to Glenfinnan",
   "height": "1013m (approx 3323ft)",
   "latitude": "57.00861",
   "longitude": "-5.445315",
   "gridReference": "NM909961",
   "difficulty": ""
 },
 {
   "description": "",
   "name": "Geal Charn",
   "region": "Fort William to Loch Ericht",
   "height": "1049m (approx 3442ft)",
   "latitude": "56.897105",
   "longitude": "-4.457751",
   "gridReference": "NN504811",
   "difficulty": ""
 },
 {
   "description": "",
   "name": "Geal Charn (Monadhliath)",
   "region": "Spean Bridge to Elgin",
   "height": "926m (approx 3038ft)",
   "latitude": "57.056883",
   "longitude": "-4.374296",
   "gridReference": "NN561987",
   "difficulty": ""
 },
 {
   "description": "",
   "name": "Geal-charn (Alder)",
   "region": "Fort William to Loch Ericht",
   "height": "1132m (approx 3714ft)",
   "latitude": "56.837626",
   "longitude": "-4.511237",
   "gridReference": "NN469746",
   "difficulty": ""
 },
 {
   "description": "",
   "name": "Geal-charn (Drumochter)",
   "region": "Loch Ericht to Glen Tromie and Glen Garry",
   "height": "917m (approx 3009ft)",
   "latitude": "56.873952",
   "longitude": "-4.305244",
   "gridReference": "NN596782",
   "difficulty": ""
 },
 {
   "description": "",
   "name": "Glas Bheinn Mhor",
   "region": "Loch Leven to Connel Bridge and Glen Lochy",
   "height": "997m (approx 3271ft)",
   "latitude": "56.541749",
   "longitude": "-5.005719",
   "gridReference": "NN153429",
   "difficulty": ""
 },
 {
   "description": "",
   "name": "Glas Maol",
   "region": "Braemar to Montrose",
   "height": "1068m (approx 3504ft)",
   "latitude": "56.872457",
   "longitude": "-3.368214",
   "gridReference": "NO167765",
   "difficulty": ""
 },
 {
   "description": "",
   "name": "Glas Tulaichean",
   "region": "Forest of Atholl to Braemar and Blairgowrie",
   "height": "1051m (approx 3448ft)",
   "latitude": "56.865738",
   "longitude": "-3.558261",
   "gridReference": "NO051760",
   "difficulty": ""
 },
 {
   "description": "",
   "name": "Gleouraich",
   "region": "Glen Shiel to Glenfinnan",
   "height": "1035m (approx 3396ft)",
   "latitude": "57.096829",
   "longitude": "-5.238798",
   "gridReference": "NH039053",
   "difficulty": ""
 },
 {
   "description": "",
   "name": "Gulvain",
   "region": "Glen Shiel to Glenfinnan",
   "height": "986m (approx 3235ft)",
   "latitude": "56.935597",
   "longitude": "-5.28564",
   "gridReference": "NN002875",
   "difficulty": ""
 },
 {
   "description": "",
   "name": "Ladhar Bheinn",
   "region": "Glen Shiel to Glenfinnan",
   "height": "1020m (approx 3346ft)",
   "latitude": "57.074568",
   "longitude": "-5.593394",
   "gridReference": "NG823039",
   "difficulty": ""
 },
 {
   "description": "",
   "name": "Lochnagar",
   "region": "Braemar to Montrose",
   "height": "1155m (approx 3789ft)",
   "latitude": "56.959982",
   "longitude": "-3.246435",
   "gridReference": "NO243861",
   "difficulty": ""
 },
 {
   "description": "",
   "name": "Luinne Bheinn",
   "region": "Glen Shiel to Glenfinnan",
   "height": "939m (approx 3081ft)",
   "latitude": "57.048027",
   "longitude": "-5.514948",
   "gridReference": "NG869007",
   "difficulty": ""
 },
 {
   "description": "",
   "name": "Lurg Mhor",
   "region": "Kyle of Lochalsh to Inverness, North of Loch Mullardoch",
   "height": "986m (approx 3235ft)",
   "latitude": "57.412739",
   "longitude": "-5.223352",
   "gridReference": "NH065404"
 },
 {
   "description": "",
   "name": "Mam Sodhail",
   "region": "Loch Duich to Loch Ness, South of Loch Mullardoch",
   "height": "1181m (approx 3875ft)",
   "latitude": "57.279607",
   "longitude": "-5.120416",
   "gridReference": "NH120253",
   "difficulty": ""
 },
 {
   "description": "",
   "name": "Maoile Lunndaidh",
   "region": "Kyle of Lochalsh to Inverness, North of Loch Mullardoch",
   "height": "1007m (approx 3304ft)",
   "latitude": "57.4641",
   "longitude": "-5.111115",
   "gridReference": "NH135458",
   "difficulty": ""
 },
 {
   "description": "",
   "name": "Maol Chean-dearg",
   "region": "Loch Carron to Loch Maree",
   "height": "933m (approx 3061ft)",
   "latitude": "57.491702",
   "longitude": "-5.465699",
   "gridReference": "NG924499",
   "difficulty": ""
 },
 {
   "description": "",
   "name": "Maol Chinn-dearg",
   "region": "Glen Shiel to Glenfinnan",
   "height": "981m (approx 3219ft)",
   "latitude": "57.127024",
   "longitude": "-5.253007",
   "gridReference": "NH032087",
   "difficulty": ""
 },
 {
   "description": "",
   "name": "Mayar",
   "region": "Braemar to Montrose",
   "height": "928m (approx 3045ft)",
   "latitude": "56.848563",
   "longitude": "-3.247648",
   "gridReference": "NO240737",
   "difficulty": ""
 },
 {
   "description": "",
   "name": "Meall a'Bhuiridh",
   "region": "Loch Leven to Connel Bridge and Glen Lochy",
   "height": "1108m (approx 3635ft)",
   "latitude": "56.611861",
   "longitude": "-4.853176",
   "gridReference": "NN250503",
   "difficulty": ""
 },
 {
   "description": "",
   "name": "Meall a'Choire Leith",
   "region": "Loch Rannoch to Loch Tay",
   "height": "926m (approx 3038ft)",
   "latitude": "56.566531",
   "longitude": "-4.26046",
   "gridReference": "NN612439",
   "difficulty": ""
 },
 {
   "description": "",
   "name": "Meall a'Chrasgaidh",
   "region": "Loch Maree to Loch Broom and Garve",
   "height": "934m (approx 3064ft)",
   "latitude": "57.712761",
   "longitude": "-5.050144",
   "gridReference": "NH184733",
   "difficulty": ""
 },
 {
   "description": "",
   "name": "Meall Buidhe (Glen Lyon)",
   "region": "Loch Rannoch to Loch Tay",
   "height": "932m (approx 3058ft)",
   "latitude": "56.616876",
   "longitude": "-4.449285",
   "gridReference": "NN498499",
   "difficulty": ""
 },
 {
   "description": "",
   "name": "Meall Buidhe (Knoydart)",
   "region": "Glen Shiel to Glenfinnan",
   "height": "946m (approx 3104ft)",
   "latitude": "57.030959",
   "longitude": "-5.54631",
   "gridReference": "NM849989",
   "difficulty": ""
 },
 {
   "description": "",
   "name": "Meall Chuaich",
   "region": "Loch Ericht to Glen Tromie and Glen Garry",
   "height": "951m (approx 3120ft)",
   "latitude": "56.963612",
   "longitude": "-4.113377",
   "gridReference": "NN716878",
   "difficulty": ""
 },
 {
   "description": "",
   "name": "Meall Corranaich",
   "region": "Loch Rannoch to Loch Tay",
   "height": "1069m (approx 3507ft)",
   "latitude": "56.540586",
   "longitude": "-4.254033",
   "gridReference": "NN615410",
   "difficulty": ""
 },
 {
   "description": "",
   "name": "Meall Dearg (Aonach Eagach)",
   "region": "Loch Leven to Connel Bridge and Glen Lochy",
   "height": "953m (approx 3127ft)",
   "latitude": "56.680226",
   "longitude": "-5.003684",
   "gridReference": "NN161583",
   "difficulty": ""
 },
 {
   "description": "",
   "name": "Meall Garbh (Ben Lawers)",
   "region": "Loch Rannoch to Loch Tay",
   "height": "1118m (approx 3668ft)",
   "latitude": "56.564773",
   "longitude": "-4.20827",
   "gridReference": "NN644436",
   "difficulty": ""
 },
 {
   "description": "",
   "name": "Meall Garbh (Carn Mairg)",
   "region": "Loch Rannoch to Loch Tay",
   "height": "968m (approx 3176ft)",
   "latitude": "56.637576",
   "longitude": "-4.20763",
   "gridReference": "NN647517",
   "difficulty": ""
 },
 {
   "description": "",
   "name": "Meall Ghaordaidh",
   "region": "Loch Rannoch to Loch Tay",
   "height": "1039m (approx 3409ft)",
   "latitude": "56.525831",
   "longitude": "-4.417387",
   "gridReference": "NN514397",
   "difficulty": ""
 },
 {
   "description": "",
   "name": "Meall Glas",
   "region": "Loch Rannoch to Loch Tay",
   "height": "959m (approx 3146ft)",
   "latitude": "56.454923",
   "longitude": "-4.547595",
   "gridReference": "NN431321",
   "difficulty": ""
 },
 {
   "description": "",
   "name": "Meall Gorm",
   "region": "Loch Maree to Loch Broom and Garve",
   "height": "949m (approx 3114ft)",
   "latitude": "57.681051",
   "longitude": "-4.985396",
   "gridReference": "NH221696",
   "difficulty": ""
 },
 {
   "description": "",
   "name": "Meall Greigh",
   "region": "Loch Rannoch to Loch Tay",
   "height": "1001m (approx 3284ft)",
   "latitude": "56.567425",
   "longitude": "-4.159591",
   "gridReference": "NN674438",
   "difficulty": ""
 },
 {
   "description": "",
   "name": "Meall na Teanga",
   "region": "Glen Shiel to Glenfinnan",
   "height": "918m (approx 3012ft)",
   "latitude": "56.988454",
   "longitude": "-4.931339",
   "gridReference": "NN220924",
   "difficulty": ""
 },
 {
   "description": "",
   "name": "Meall nan Ceapraichean",
   "region": "Ullapool to the Moray Firth",
   "height": "977m (approx 3205ft)",
   "latitude": "57.79818",
   "longitude": "-4.934472",
   "gridReference": "NH257825",
   "difficulty": ""
 },
 {
   "description": "",
   "name": "Meall nan Eun",
   "region": "Loch Leven to Connel Bridge and Glen Lochy",
   "height": "928m (approx 3045ft)",
   "latitude": "56.56121",
   "longitude": "-4.943775",
   "gridReference": "NN192449",
   "difficulty": ""
 },
 {
   "description": "",
   "name": "Meall nan Tarmachan",
   "region": "Loch Rannoch to Loch Tay",
   "height": "1044m (approx 3425ft)",
   "latitude": "56.521738",
   "longitude": "-4.301689",
   "gridReference": "NN585390",
   "difficulty": ""
 },
 {
   "description": "",
   "name": "Monadh Mor",
   "region": "The Cairngorms",
   "height": "1115m (approx 3658ft)",
   "latitude": "57.026713",
   "longitude": "-3.751169",
   "gridReference": "NN938942",
   "difficulty": ""
 },
 {
   "description": "",
   "name": "Moruisg",
   "region": "Kyle of Lochalsh to Inverness, North of Loch Mullardoch",
   "height": "928m (approx 3045ft)",
   "latitude": "57.499463",
   "longitude": "-5.170892",
   "gridReference": "NH101499",
   "difficulty": ""
 },
 {
   "description": "",
   "name": "Mount Keen",
   "region": "Braemar to Montrose",
   "height": "939m (approx 3081ft)",
   "latitude": "56.969589",
   "longitude": "-2.9737",
   "gridReference": "NO409869",
   "difficulty": ""
 },
 {
   "description": "",
   "name": "Mullach an Rathain (Liathach)",
   "region": "Loch Carron to Loch Maree",
   "height": "1023m (approx 3356ft)",
   "latitude": "57.561085",
   "longitude": "-5.492367",
   "gridReference": "NG912577",
   "difficulty": ""
 },
 {
   "description": "",
   "name": "Mullach Clach a'Bhlair",
   "region": "The Cairngorms",
   "height": "1019m (approx 3343ft)",
   "latitude": "57.011945",
   "longitude": "-3.841059",
   "gridReference": "NN883927",
   "difficulty": ""
 },
 {
   "description": "",
   "name": "Mullach Coire Mhic Fhearchair",
   "region": "Loch Maree to Loch Broom and Garve",
   "height": "1019m (approx 3343ft)",
   "latitude": "57.709028",
   "longitude": "-5.271494",
   "gridReference": "NH052735",
   "difficulty": ""
 },
 {
   "description": "",
   "name": "Mullach Fraoch-choire",
   "region": "Loch Duich to Loch Ness, South of Loch Mullardoch",
   "height": "1102m (approx 3615ft)",
   "latitude": "57.205023",
   "longitude": "-5.155522",
   "gridReference": "NH095171",
   "difficulty": ""
 },
 {
   "description": "",
   "name": "Mullach nan Coirean",
   "region": "Fort William to Loch Ericht",
   "height": "939m (approx 3081ft)",
   "latitude": "56.749546",
   "longitude": "-5.073025",
   "gridReference": "NN122662",
   "difficulty": ""
 },
 {
   "description": "",
   "name": "Mullach nan Dheiragain",
   "region": "Loch Duich to Loch Ness, South of Loch Mullardoch",
   "height": "981m (approx 3219ft)",
   "latitude": "57.283325",
   "longitude": "-5.187123",
   "gridReference": "NH080259",
   "difficulty": ""
 },
 {
   "description": "",
   "name": "Na Gruagaichean",
   "region": "Fort William to Loch Ericht",
   "height": "1056m (approx 3465ft)",
   "latitude": "56.743766",
   "longitude": "-4.940052",
   "gridReference": "NN203652",
   "difficulty": ""
 },
 {
   "description": "",
   "name": "Ruadh Stac Mor",
   "region": "Loch Maree to Loch Broom and Garve",
   "height": "918m (approx 3012ft)",
   "latitude": "57.726373",
   "longitude": "-5.330187",
   "gridReference": "NH018756",
   "difficulty": ""
 },
 {
   "description": "",
   "name": "Ruadh-stac Mor (Beinn Eighe)",
   "region": "Loch Carron to Loch Maree",
   "height": "1010m (approx 3314ft)",
   "latitude": "57.593356",
   "longitude": "-5.430172",
   "gridReference": "NG951611",
   "difficulty": ""
 },
 {
   "description": "",
   "name": "Sail Chaorainn",
   "region": "Loch Duich to Loch Ness, South of Loch Mullardoch",
   "height": "1002m (approx 3287ft)",
   "latitude": "57.191337",
   "longitude": "-5.091439",
   "gridReference": "NH133154",
   "difficulty": ""
 },
 {
   "description": "",
   "name": "Saileag",
   "region": "Loch Duich to Loch Ness, South of Loch Mullardoch",
   "height": "956m (approx 3136ft)",
   "latitude": "57.181087",
   "longitude": "-5.28259",
   "gridReference": "NH017148",
   "difficulty": ""
 },
 {
   "description": "",
   "name": "Schiehallion",
   "region": "Loch Rannoch to Loch Tay",
   "height": "1083m (approx 3553ft)",
   "latitude": "56.666371",
   "longitude": "-4.101601",
   "gridReference": "NN713547",
   "difficulty": ""
 },
 {
   "description": "",
   "name": "Seana Bhraigh",
   "region": "Ullapool to the Moray Firth",
   "height": "926m (approx 3038ft)",
   "latitude": "57.846653",
   "longitude": "-4.897964",
   "gridReference": "NH281878",
   "difficulty": ""
 },
 {
   "description": "",
   "name": "Sgairneach Mhor",
   "region": "Loch Ericht to Glen Tromie and Glen Garry",
   "height": "989m (approx 3245ft)",
   "latitude": "56.828233",
   "longitude": "-4.299155",
   "gridReference": "NN598731",
   "difficulty": ""
 },
 {
   "description": "",
   "name": "Sgiath Chuil",
   "region": "Loch Rannoch to Loch Tay",
   "height": "921m (approx 3022ft)",
   "latitude": "56.452354",
   "longitude": "-4.497111",
   "gridReference": "NN462317",
   "difficulty": ""
 },
 {
   "description": "",
   "name": "Sgor an Lochain Uaine",
   "region": "The Cairngorms",
   "height": "1258m (approx 4127ft)",
   "latitude": "57.057608",
   "longitude": "-3.72624",
   "gridReference": "NN954976",
   "difficulty": ""
 },
 {
   "description": "",
   "name": "Sgor Gaibhre",
   "region": "Fort William to Loch Ericht",
   "height": "955m (approx 3133ft)",
   "latitude": "56.772177",
   "longitude": "-4.547782",
   "gridReference": "NN444674",
   "difficulty": ""
 },
 {
   "description": "",
   "name": "Sgor Gaoith",
   "region": "The Cairngorms",
   "height": "1118m (approx 3668ft)",
   "latitude": "57.06807",
   "longitude": "-3.812498",
   "gridReference": "NN902989",
   "difficulty": ""
 },
 {
   "description": "",
   "name": "Sgor na h-Ulaidh",
   "region": "Loch Leven to Connel Bridge and Glen Lochy",
   "height": "994m (approx 3261ft)",
   "latitude": "56.619922",
   "longitude": "-5.080412",
   "gridReference": "NN111518",
   "difficulty": ""
 },
 {
   "description": "",
   "name": "Sgorr Dhearg (Beinn a'Bheithir)",
   "region": "Loch Leven to Connel Bridge and Glen Lochy",
   "height": "1024m (approx 3360ft)",
   "latitude": "56.653553",
   "longitude": "-5.172915",
   "gridReference": "NN056558",
   "difficulty": ""
 },
 {
   "description": "",
   "name": "Sgorr Dhonuill (Beinn a'Bheithir)",
   "region": "Loch Leven to Connel Bridge and Glen Lochy",
   "height": "1001m (approx 3284ft)",
   "latitude": "56.650195",
   "longitude": "-5.198743",
   "gridReference": "NN040555",
   "difficulty": ""
 },
 {
   "description": "",
   "name": "Sgorr nam Fiannaidh (Aonach Eagach)",
   "region": "Loch Leven to Connel Bridge and Glen Lochy",
   "height": "967m (approx 3173ft)",
   "latitude": "56.679395",
   "longitude": "-5.037911",
   "gridReference": "NN140583",
   "difficulty": ""
 },
 {
   "description": "",
   "name": "Sgorr Ruadh",
   "region": "Loch Carron to Loch Maree",
   "height": "961m (approx 3153ft)",
   "latitude": "57.498671",
   "longitude": "-5.407918",
   "gridReference": "NG959505",
   "difficulty": ""
 },
 {
   "description": "",
   "name": "Sgurr a'Bhealaich Dheirg",
   "region": "Loch Duich to Loch Ness, South of Loch Mullardoch",
   "height": "1036m (approx 3399ft)",
   "latitude": "57.177377",
   "longitude": "-5.252468",
   "gridReference": "NH035143",
   "difficulty": ""
 },
 {
   "description": "",
   "name": "Sgurr a'Chaorachain",
   "region": "Kyle of Lochalsh to Inverness, North of Loch Mullardoch",
   "height": "1053m (approx 3455ft)",
   "latitude": "57.452237",
   "longitude": "-5.190145",
   "gridReference": "NH087447",
   "difficulty": ""
 },
 {
   "description": "",
   "name": "Sgurr a'Choire Ghlais",
   "region": "Kyle of Lochalsh to Inverness, North of Loch Mullardoch",
   "height": "1083m (approx 3553ft)",
   "latitude": "57.443909",
   "longitude": "-4.902693",
   "gridReference": "NH259430",
   "difficulty": ""
 },
 {
   "description": "",
   "name": "Sgurr a'Ghreadaidh",
   "region": "Isle of Skye",
   "height": "972m (approx 3189ft)",
   "latitude": "57.228067",
   "longitude": "-6.235008",
   "gridReference": "NG445232",
   "difficulty": ""
 },
 {
   "description": "",
   "name": "Sgurr a'Mhadaidh",
   "region": "Isle of Skye",
   "height": "918m (approx 3012ft)",
   "latitude": "57.23081",
   "longitude": "-6.233665",
   "gridReference": "NG446235"
 },
 {
   "description": "",
   "name": "Sgurr a'Mhaim",
   "region": "Fort William to Loch Ericht",
   "height": "1099m (approx 3606ft)",
   "latitude": "56.755704",
   "longitude": "-5.004802",
   "gridReference": "NN164667",
   "difficulty": ""
 },
 {
   "description": "",
   "name": "Sgurr a'Mhaoraich",
   "region": "Glen Shiel to Glenfinnan",
   "height": "1027m (approx 3369ft)",
   "latitude": "57.10517",
   "longitude": "-5.332034",
   "gridReference": "NG983065",
   "difficulty": ""
 },
 {
   "description": "",
   "name": "Sgurr Alasdair",
   "region": "Isle of Skye",
   "height": "991m (approx 3251ft)",
   "latitude": "57.205949",
   "longitude": "-6.224185",
   "gridReference": "NG450207",
   "difficulty": ""
 },
 {
   "description": "",
   "name": "Sgurr an Doire Leathain",
   "region": "Glen Shiel to Glenfinnan",
   "height": "1010m (approx 3314ft)",
   "latitude": "57.137055",
   "longitude": "-5.281994",
   "gridReference": "NH015099",
   "difficulty": ""
 },
 {
   "description": "",
   "name": "Sgurr an Lochain",
   "region": "Glen Shiel to Glenfinnan",
   "height": "1004m (approx 3294ft)",
   "latitude": "57.141106",
   "longitude": "-5.298888",
   "gridReference": "NH005104",
   "difficulty": ""
 },
 {
   "description": "",
   "name": "Sgurr Ban",
   "region": "Loch Maree to Loch Broom and Garve",
   "height": "987m (approx 3238ft)",
   "latitude": "57.718125",
   "longitude": "-5.267276",
   "gridReference": "NH055745",
   "difficulty": ""
 },
 {
   "description": "",
   "name": "Sgurr Breac",
   "region": "Loch Maree to Loch Broom and Garve",
   "height": "999m (approx 3278ft)",
   "latitude": "57.69197",
   "longitude": "-5.092034",
   "gridReference": "NH158711",
   "difficulty": ""
 },
 {
   "description": "",
   "name": "Sgurr Choinnich",
   "region": "Kyle of Lochalsh to Inverness, North of Loch Mullardoch",
   "height": "999m (approx 3278ft)",
   "latitude": "57.450875",
   "longitude": "-5.208368",
   "gridReference": "NH076446",
   "difficulty": ""
 },
 {
   "description": "",
   "name": "Sgurr Choinnich Mor",
   "region": "Fort William to Loch Ericht",
   "height": "1094m (approx 3589ft)",
   "latitude": "56.800313",
   "longitude": "-4.905163",
   "gridReference": "NN227714",
   "difficulty": ""
 },
 {
   "description": "",
   "name": "Sgurr Dubh Mor",
   "region": "Isle of Skye",
   "height": "944m (approx 3097ft)",
   "latitude": "57.204546",
   "longitude": "-6.212425",
   "gridReference": "NG457205",
   "difficulty": ""
 },
 {
   "description": "",
   "name": "Sgurr Eilde Mor",
   "region": "Fort William to Loch Ericht",
   "height": "1010m (approx 3314ft)",
   "latitude": "56.749285",
   "longitude": "-4.896312",
   "gridReference": "NN230657",
   "difficulty": ""
 },
 {
   "description": "",
   "name": "Sgurr Fhuar-thuill",
   "region": "Kyle of Lochalsh to Inverness, North of Loch Mullardoch",
   "height": "1049m (approx 3442ft)",
   "latitude": "57.449262",
   "longitude": "-4.94313",
   "gridReference": "NH235437",
   "difficulty": ""
 },
 {
   "description": "",
   "name": "Sgurr Fhuaran",
   "region": "Loch Duich to Loch Ness, South of Loch Mullardoch",
   "height": "1067m (approx 3501ft)",
   "latitude": "57.195527",
   "longitude": "-5.348455",
   "gridReference": "NG978166",
   "difficulty": ""
 },
 {
    "description": "",
    "name": "Sgurr Fiona (An Teallach)",
    "region": "Loch Maree to Loch Broom and Garve",
    "height": "1060m (approx 3478ft)",
    "latitude": "57.801018",
    "longitude": "-5.25962",
    "gridReference": "NH064837",
    "difficulty": ""
 },
 {
   "description": "",
   "name": "Sgurr Mhic Choinnich",
   "region": "Isle of Skye",
   "height": "948m (approx 3110ft)",
   "latitude": "57.208636",
   "longitude": "-6.224493",
   "gridReference": "NG450210",
   "difficulty": ""
 },
 {
   "description": "",
   "name": "Sgurr Mor",
   "region": "Loch Maree to Loch Broom and Garve",
   "height": "1110m (approx 3642ft)",
   "latitude": "57.700069",
   "longitude": "-5.017179",
   "gridReference": "NH203718",
   "difficulty": "Moderate"
 },
 {
   "description": "",
   "name": "Sgurr Mor (Beinn Alligin)",
   "region": "Loch Carron to Loch Maree",
   "height": "986m (approx 3235ft)",
   "latitude": "57.591165",
   "longitude": "-5.573936",
   "gridReference": "NG865613",
   "difficulty": ""
 },
 {
   "description": "",
   "name": "Sgurr Mor (Loch Quoich)",
   "region": "Glen Shiel to Glenfinnan",
   "height": "1003m (approx 3291ft)",
   "latitude": "57.028151",
   "longitude": "-5.354805",
   "gridReference": "NM965980",
   "difficulty": ""
 },
 {
   "description": "",
   "name": "Sgurr na Banachdich",
   "region": "Isle of Skye",
   "height": "965m (approx 3166ft)",
   "latitude": "57.220621",
   "longitude": "-6.242443",
   "gridReference": "NG440224",
   "difficulty": ""
 },
 {
   "description": "",
   "name": "Sgurr na Carnach",
   "region": "Loch Duich to Loch Ness, South of Loch Mullardoch",
   "height": "1002m (approx 3287ft)",
   "latitude": "57.188308",
   "longitude": "-5.349457",
   "gridReference": "NG977158",
   "difficulty": ""
 },
 {
   "description": "",
   "name": "Sgurr na Ciche",
   "region": "Glen Shiel to Glenfinnan",
   "height": "1040m (approx 3412ft)",
   "latitude": "57.012776",
   "longitude": "-5.457236",
   "gridReference": "NM902966",
   "difficulty": ""
 },
 {
   "description": "",
   "name": "Sgurr na Ciste Duibhe",
   "region": "Loch Duich to Loch Ness, South of Loch Mullardoch",
   "height": "1027m (approx 3369ft)",
   "latitude": "57.180545",
   "longitude": "-5.337166",
   "gridReference": "NG984149",
   "difficulty": ""
 },
 {
   "description": "",
   "name": "Sgurr na Lapaich",
   "region": "Kyle of Lochalsh to Inverness, North of Loch Mullardoch",
   "height": "1150m (approx 3773ft)",
   "latitude": "57.369143",
   "longitude": "-5.061475",
   "gridReference": "NH160351",
   "difficulty": ""
 },
 {
   "description": "",
   "name": "Sgurr na Ruaidhe",
   "region": "Kyle of Lochalsh to Inverness, North of Loch Mullardoch",
   "height": "992m (approx 3255ft)",
   "latitude": "57.441423",
   "longitude": "-4.854159",
   "gridReference": "NH288426",
   "difficulty": ""
 },
 {
   "description": "",
   "name": "Sgurr na Sgine",
   "region": "Glen Shiel to Glenfinnan",
   "height": "945m (approx 3100ft)",
   "latitude": "57.146577",
   "longitude": "-5.396949",
   "gridReference": "NG946113",
   "difficulty": ""
 },
 {
   "description": "",
   "name": "Sgurr nan Ceathreamhnan",
   "region": "Loch Duich to Loch Ness, South of Loch Mullardoch",
   "height": "1151m (approx 3776ft)",
   "latitude": "57.25455",
   "longitude": "-5.222783",
   "gridReference": "NH057228",
   "difficulty": ""
 },
 {
   "description": "",
   "name": "Sgurr nan Clach Geala",
   "region": "Loch Maree to Loch Broom and Garve",
   "height": "1093m (approx 3586ft)",
   "latitude": "57.696615",
   "longitude": "-5.048785",
   "gridReference": "NH184715",
   "difficulty": ""
 },
 {
   "description": "",
   "name": "Sgurr nan Coireachan (Glenn Dessary)",
   "region": "Glen Shiel to Glenfinnan",
   "height": "953m (approx 3127ft)",
   "latitude": "57.007",
   "longitude": "-5.405623",
   "gridReference": "NM933958",
   "difficulty": ""
 },
 {
   "description": "",
   "name": "Sgurr nan Coireachan (Glenfinnan)",
   "region": "Glen Shiel to Glenfinnan",
   "height": "956m (approx 3136ft)",
   "latitude": "56.935659",
   "longitude": "-5.450091",
   "gridReference": "NM902880",
   "difficulty": ""
 },
 {
   "description": "",
   "name": "Sgurr nan Conbhairean",
   "region": "Loch Duich to Loch Ness, South of Loch Mullardoch",
   "height": "1109m (approx 3638ft)",
   "latitude": "57.176822",
   "longitude": "-5.096846",
   "gridReference": "NH129138",
   "difficulty": ""
 },
 {
   "description": "",
   "name": "Sgurr nan Each",
   "region": "Loch Maree to Loch Broom and Garve",
   "height": "923m (approx 3028ft)",
   "latitude": "57.68047",
   "longitude": "-5.047429",
   "gridReference": "NH184697",
   "difficulty": ""
 },
 {
   "description": "",
   "name": "Sgurr nan Eag",
   "region": "Isle of Skye",
   "height": "924m (approx 3032ft)",
   "latitude": "57.195587",
   "longitude": "-6.211403",
   "gridReference": "NG457195",
   "difficulty": ""
 },
 {
   "description": "",
   "name": "Sgurr nan Gillean",
   "region": "Isle of Skye",
   "height": "964m (approx 3163ft)",
   "latitude": "57.247428",
   "longitude": "-6.194098",
   "gridReference": "NG471252",
   "difficulty": ""
 },
 {
   "description": "",
   "name": "Sgurr Thuilm",
   "region": "Glen Shiel to Glenfinnan",
   "height": "963m (approx 3159ft)",
   "latitude": "56.936423",
   "longitude": "-5.389314",
   "gridReference": "NM939879",
   "difficulty": ""
 },
 {
   "description": "",
   "name": "Slioch",
   "region": "Loch Maree to Loch Broom and Garve",
   "height": "981m (approx 3219ft)",
   "latitude": "57.66657",
   "longitude": "-5.348182",
   "gridReference": "NH004690",
   "difficulty": ""
 },
 {
   "description": "",
   "name": "Spidean a'Choire Leith (Liathach)",
   "region": "Loch Carron to Loch Maree",
   "height": "1055m (approx 3461ft)",
   "latitude": "57.56366",
   "longitude": "-5.464177",
   "gridReference": "NG929579",
   "difficulty": ""
 },
 {
   "description": "",
   "name": "Spidean Coire nan Clach (Beinn Eighe)",
   "region": "Loch Carron to Loch Maree",
   "height": "993m (approx 3258ft)",
   "latitude": "57.58148",
   "longitude": "-5.403919",
   "gridReference": "NG966597",
   "difficulty": ""
 },
 {
   "description": "",
   "name": "Spidean Mialach",
   "region": "Glen Shiel to Glenfinnan",
   "height": "996m (approx 3268ft)",
   "latitude": "57.089002",
   "longitude": "-5.193535",
   "gridReference": "NH066043",
   "difficulty": ""
 },
 {
   "description": "",
   "name": "Sron a'Choire Ghairbh",
   "region": "Glen Shiel to Glenfinnan",
   "height": "937m (approx 3074ft)",
   "latitude": "57.007372",
   "longitude": "-4.929533",
   "gridReference": "NN222945",
   "difficulty": ""
 },
 {
   "description": "",
   "name": "Stob a'Choire Mheadhoin",
   "region": "Fort William to Loch Ericht",
   "height": "1106m (approx 3629ft)",
   "latitude": "56.82336",
   "longitude": "-4.76106",
   "gridReference": "NN316736",
   "difficulty": ""
 },
 {
   "description": "",
   "name": "Stob a'Choire Odhair",
   "region": "Loch Leven to Connel Bridge and Glen Lochy",
   "height": "945m (approx 3100ft)",
   "latitude": "56.57264",
   "longitude": "-4.838821",
   "gridReference": "NN257459",
   "difficulty": ""
 },
 {
   "description": "",
   "name": "Stob Ban (Grey Corries)",
   "region": "Fort William to Loch Ericht",
   "height": "975m (approx 3199ft)",
   "latitude": "56.809858",
   "longitude": "-4.841996",
   "gridReference": "NN266723",
   "difficulty": ""
 },
 {
   "description": "",
   "name": "Stob Ban (Mamores)",
   "region": "Fort William to Loch Ericht",
   "height": "999m (approx 3278ft)",
   "latitude": "56.743369",
   "longitude": "-5.031625",
   "gridReference": "NN147654",
   "difficulty": ""
 },
 {
   "description": "",
   "name": "Stob Binnein",
   "region": "Firth of Clyde to Strathtay",
   "height": "1165m (approx 3822ft)",
   "latitude": "56.370653",
   "longitude": "-4.537109",
   "gridReference": "NN434227",
   "difficulty": ""
 },
 {
   "description": "",
   "name": "Stob Choire Claurigh",
   "region": "Fort William to Loch Ericht",
   "height": "1177m (approx 3862ft)",
   "latitude": "56.823167",
   "longitude": "-4.849561",
   "gridReference": "NN262738",
   "difficulty": ""
 },
 {
   "description": "",
   "name": "Stob Coir'an Albannaich",
   "region": "Loch Leven to Connel Bridge and Glen Lochy",
   "height": "1044m (approx 3425ft)",
   "latitude": "56.554935",
   "longitude": "-4.980722",
   "gridReference": "NN169443",
   "difficulty": ""
 },
 {
   "description": "",
   "name": "Stob Coire a'Chairn",
   "region": "Fort William to Loch Ericht",
   "height": "980m (approx 3215ft)",
   "latitude": "56.750247",
   "longitude": "-4.970008",
   "gridReference": "NN185660",
   "difficulty": ""
 },
 {
   "description": "",
   "name": "Stob Coire an Laoigh",
   "region": "Fort William to Loch Ericht",
   "height": "1116m (approx 3661ft)",
   "latitude": "56.810638",
   "longitude": "-4.886298",
   "gridReference": "NN239725",
   "difficulty": ""
 },
 {
   "description": "",
   "name": "Stob Coire Easain",
   "region": "Fort William to Loch Ericht",
   "height": "1116m (approx 3661ft)",
   "latitude": "56.817685",
   "longitude": "-4.773754",
   "gridReference": "NN308730",
   "difficulty": ""
 },
 {
   "description": "",
   "name": "Stob Coire Raineach (Buachaille Etive Beag)",
   "region": "Loch Leven to Connel Bridge and Glen Lochy",
   "height": "925m (approx 3035ft)",
   "latitude": "56.649995",
   "longitude": "-4.952326",
   "gridReference": "NN179535",
   "difficulty": ""
 },
 {
   "description": "",
   "name": "Stob Coire Sgreamhach",
   "region": "Loch Leven to Connel Bridge and Glen Lochy",
   "height": "1072m (approx 3517ft)",
   "latitude": "56.637784",
   "longitude": "-5.011726",
   "gridReference": "NN154536",
   "difficulty": ""
 },
 {
   "description": "",
   "name": "Stob Coire Sgriodain",
   "region": "Fort William to Loch Ericht",
   "height": "978m (approx 3209ft)",
   "latitude": "56.831073",
   "longitude": "-4.69605",
   "gridReference": "NN356743",
   "difficulty": ""
 },
 {
   "description": "",
   "name": "Stob Daimh",
   "region": "Loch Leven to Connel Bridge and Glen Lochy",
   "height": "998m (approx 3274ft)",
   "latitude": "56.430844",
   "longitude": "-5.092674",
   "gridReference": "NN094308",
   "difficulty": ""
 },
 {
   "description": "",
   "name": "Stob Dearg (Buachaille Etive Mor)",
   "region": "Loch Leven to Connel Bridge and Glen Lochy",
   "height": "1021m (approx 3350ft)",
   "latitude": "56.645799",
   "longitude": "-4.901421",
   "gridReference": "NN222542",
   "difficulty": ""
 },
 {
   "description": "",
   "name": "Stob Dubh (Buachaille Etive Beag)",
   "region": "Loch Leven to Connel Bridge and Glen Lochy",
   "height": "958m (approx 3143ft)",
   "latitude": "56.637866",
   "longitude": "-4.970952",
   "gridReference": "NN179535",
   "difficulty": ""
 },
 {
   "description": "",
   "name": "Stob Ghabhar",
   "region": "Loch Leven to Connel Bridge and Glen Lochy",
   "height": "1090m (approx 3576ft)",
   "latitude": "56.568041",
   "longitude": "-4.882436",
   "gridReference": "NN230455",
   "difficulty": ""
 },
 {
   "description": "",
   "name": "Stob na Broige (Buachaille Etive Mor)",
   "region": "Loch Leven to Connel Bridge and Glen Lochy",
   "height": "956m (approx 3136ft)",
   "latitude": "56.62932",
   "longitude": "-4.952341",
   "gridReference": "NN190525",
   "difficulty": ""
 },
 {
   "description": "",
   "name": "Stob Poite Coire Ardair",
   "region": "Spean Bridge to Elgin",
   "height": "1054m (approx 3458ft)",
   "latitude": "56.963693",
   "longitude": "-4.587169",
   "gridReference": "NN428888",
   "difficulty": ""
 },
 {
   "description": "",
   "name": "Stuc a'Chroin",
   "region": "Firth of Clyde to Strathtay",
   "height": "974m (approx 3196ft)",
   "latitude": "56.32878",
   "longitude": "-4.238294",
   "gridReference": "NN617174",
   "difficulty": ""
 },
 {
   "description": "",
   "name": "Stuchd an Lochain",
   "region": "Loch Rannoch to Loch Tay",
   "height": "960m (approx 3150ft)",
   "latitude": "56.570617",
   "longitude": "-4.470714",
   "gridReference": "NN483448",
   "difficulty": ""
 },
 {
   "description": "",
   "name": "The Cairnwell",
   "region": "Forest of Atholl to Braemar and Blairgowrie",
   "height": "933m (approx 3061ft)",
   "latitude": "56.879037",
   "longitude": "-3.422608",
   "gridReference": "NO134773",
   "difficulty": ""
 },
 {
   "description": "",
   "name": "The Devil's Point",
   "region": "The Cairgorms",
   "height": "1004m (approx 3294ft)",
   "latitude": "57.035654",
   "longitude": "-3.688965",
   "gridReference": "NN976951",
   "difficulty": ""
 },
 {
   "description": "",
   "name": "The Saddle",
   "region": "Glen Shiel to Glenfinnan",
   "height": "1010m (approx 3314ft)",
   "latitude": "57.16227",
   "longitude": "-5.414935",
   "gridReference": "NG936131",
   "difficulty": ""
 },
 {
   "description": "",
   "name": "Toll Creagach",
   "region": "Loch Duich to Loch Ness, South of Loch Mullardoch",
   "height": "1054m (approx 3458ft)",
   "latitude": "57.308607",
   "longitude": "-4.999969",
   "gridReference": "NH194282",
   "difficulty": ""
 },
 {
   "description": "",
   "name": "Tolmount",
   "region": "Braemar to Montrose",
   "height": "958m (approx 3143ft)",
   "latitude": "56.904644",
   "longitude": "-3.29878",
   "gridReference": "NO210800",
   "difficulty": ""
 },
 {
   "description": "",
   "name": "Tom a'Choinich",
   "region": "Loch Duich to Loch Ness, South of Loch Mullardoch",
   "height": "1113m (approx 3652ft)",
   "latitude": "57.299337",
   "longitude": "-5.049027",
   "gridReference": "NH164273",
   "difficulty": ""
 },
 {
   "description": "",
   "name": "Tom Buidhe",
   "region": "Braemar to Montrose",
   "height": "957m (approx 3140ft)",
   "latitude": "56.893019",
   "longitude": "-3.293452",
   "gridReference": "NO213787",
   "difficulty": ""
 },
 {
   "description": "",
   "name": "Tom na Gruagaich (Beinn Alligin)",
   "region": "Loch Carron to Loch Maree",
   "height": "922m (approx 3025ft)",
   "latitude": "57.580123",
   "longitude": "-5.582894",
   "gridReference": "NG859601",
   "difficulty": ""
 }
]}
